[{"name":" Restaurant Tiwald","address":"Gottesbichlstraße 55\n ","postcode":"9020","city":"Klagenfurt","countrycode":"  A","latitude":"46.650675","longitude":"14.368615","details":"\"traditionell, klassisch, kärntnerisch\", Tel. +43.650.5295340, angelika.tiwald@gmx.at, www.restaurant-tiwald.at"},{"name":" Buschenschank Schützelhofer","address":"Kadutschen 23\n ","postcode":"9530","city":"Bad Bleiberg","countrycode":"  A","latitude":"46.630129","longitude":"13.752649","details":"Tel. +43.4244.2887, schuetzelhofer_buschenschank@aon.at"},{"name":" Bier und Bierli","address":"Operngasse 12\n ","postcode":"1010","city":"Wien","countrycode":"  A","latitude":"48.202186","longitude":"16.367597","details":"Bierrestaurant, österreichische Küche, www.bierundbierli.at"},{"name":" Wirtshaus im Lösshof","address":"\n ","postcode":"3471","city":"Großriedenthal 18","countrycode":"  A","latitude":"48.484706","longitude":"15.866646","details":"Traditionelle Wirtshausküche, feine Bierspezialitäten, wagramer Bio-Weine, www.loesshof.at"},{"name":" Chiq Chaq","address":"Nußdorferstraße 7\n ","postcode":"1090","city":"Wien","countrycode":"  A","latitude":"48.223320","longitude":"16.353151","details":"Cafe-Restaurant, www.chiqchaq.at"},{"name":" Café-Bäckerei Sorger","address":"Annenstraße 42\n ","postcode":"8010","city":"Graz","countrycode":"  A","latitude":"47.071330","longitude":"15.424993","details":"gesamtes(!) Sortiment 50% reduziert, tlw. bio, Tel. +43.664.3910700, office@sorgerbrot.at, www.sorgerbrot.at"},{"name":" Cafe Restaurant Schönbrunn","address":"Schönbrunner Straße 244\n ","postcode":"1120","city":"Wien","countrycode":"  A","latitude":"48.183128","longitude":"16.323547","details":"Österreichisch, www.cafeschoenbrunn.at"},{"name":" Bayerhütte","address":"Nadram 10\n ","postcode":"9161","city":"Maria Rain","countrycode":"  A","latitude":"46.574929","longitude":"14.307902","details":"Tel. +43.4227.84906, nur einfache Küche, nur Sonntag offen"},{"name":" Restaurant Rembetiko","address":"Porzellangasse 38\n ","postcode":"1090","city":"Wien","countrycode":"  A","latitude":"48.222420","longitude":"16.361301","details":"Griechisch, www.rembetiko.at"},{"name":" Gasthaus Wickerl","address":"Porzellangasse 24a\n ","postcode":"1090","city":"Wien","countrycode":"  A","latitude":"48.220867","longitude":"16.360864","details":"Gehobene österreichische Küche, www.wickerl.at"},{"name":" Cafe im Schauspielhaus","address":"Porzellangasse 19\n ","postcode":"1090","city":"Wien","countrycode":"  A","latitude":"48.219954","longitude":"16.361364","details":" "},{"name":" Gasthaus Stephan Teix","address":"Am Platz 1\n ","postcode":"3041","city":"Habersdorf","countrycode":"  A","latitude":"48.233388","longitude":"15.920634","details":"kreative Bio-Gerichte aus eigener Produktion, Tel/Fax +43.2772.53141, Mobil 0676.4724903, Do ab 17h, Fr ab 16h, www.bio-erlebnishof.at"},{"name":" Pay as you wish","address":"Liechtensteinstrasse 10\n ","postcode":"1090","city":"Wien","countrycode":"  A","latitude":"48.217046","longitude":"16.362751","details":"Indisch"},{"name":" OEAV Zittelhaus","address":"\n ","postcode":"5661","city":"Rauris","countrycode":"  A","latitude":"47.054009","longitude":"12.957372","details":"Tel. +43.6544.6412, h.schmiderer@gmx.at, www.zittelhaus.at"},{"name":" Restaurant zum Leitner","address":"Mariahilferstraße 186\n ","postcode":"1150","city":"Wien","countrycode":"  A","latitude":"48.191501","longitude":"16.328127","details":"Österreichisch"},{"name":" Restaurant Jaipur Palace","address":"Brünnlbadgasse 15\n ","postcode":"1090","city":"Wien","countrycode":"  A","latitude":"48.217335","longitude":"16.345271","details":"Indisch"},{"name":" Denn's Bio Bistro","address":"Völkermarkter Straße 160\n ","postcode":"9020","city":"Klagenfurt","countrycode":"  A","latitude":"46.626711","longitude":"14.344073","details":"Tel. +43.463.381377, So u. Fei geschlossen, info@denns.at, www.denns-biomarkt.at"},{"name":" Café Postkastl","address":"Kirchplatz 2\n ","postcode":"9713","city":"Stockenboi-Zlan","countrycode":"  A","latitude":"46.729065","longitude":"13.580283","details":"Tel. +43.664.9586282"},{"name":" C.C. Café Creperie Restaurant","address":"Grazerplatz 9\n ","postcode":"8280","city":"Fürstenfeld","countrycode":"  A","latitude":"47.052011","longitude":"16.073702","details":"Café Restaurant, Tel. +43.664.5614092, info@cafe-creperie.at, www.cafe-creperie.at"},{"name":" Karnerta Jausenecke","address":"Südring 334\n ","postcode":"9020","city":"Klagenfurt","countrycode":"  A","latitude":"46.613561","longitude":"14.341197","details":"nur Mittagsmenüs, Mo-Fr 11-14h, Tel. +43.463.351530, office@karnerta.at, www.karnerta.at"},{"name":" Strasser Bräu","address":"Schönbrunnerstraße 253\n ","postcode":"1120","city":"Wien","countrycode":"  A","latitude":"48.183346","longitude":"16.330049","details":"Bierlokal, Gastgarten, www.strasserbraeu.at"},{"name":" Restaurant Meisel","address":"Hütteldorferstraße 66\n ","postcode":"1150","city":"Wien","countrycode":"  A","latitude":"48.199092","longitude":"6.3206282","details":"Wiener Küche, Mittagsmenü, Gruppen, Mo-Fr 11-23h, www.restaurant-meisel.at"},{"name":" Sonnhof","address":"Kernhausstraße 130\n ","postcode":"8785","city":"Hohentauern","countrycode":"  A","latitude":"47.433365","longitude":"14.458384","details":"Hotel-Café-Restaurant, Tel. +43.3618.466, hotel.sonnhof@aon.at, www.sonnhof-hohentauern.at"},{"name":" Passhöhe","address":"Hohentauern 110\n ","postcode":"8785","city":"Hohentauern","countrycode":"  A","latitude":"47.433474","longitude":"14.481547","details":"Hotel-Restaurant, Tel. +43.3618.219, haas@passhoehe.at, www.passhoehe.at"},{"name":" le Pho","address":"Gumpendorfer Straße 97\n ","postcode":"1060","city":"Wien","countrycode":"  A","latitude":"48.192223","longitude":"16.348669","details":"Vietnamnesische Küche, Tel. +43.1.5973226, www.le-pho.at"},{"name":" Cafe Konditorei Adelheid Konditorkunst","address":"Ballgasse 4 \n ","postcode":"1010","city":"Wien","countrycode":"  A","latitude":"48.206179","longitude":"16.373043","details":"www.konditorkunst.at"},{"name":" Partl","address":"Bleiburgerstraße 4\n ","postcode":"9141","city":"Eberndorf","countrycode":"  A","latitude":"46.590331","longitude":"14.639952","details":"Gaststätte mit Feinkostladen, Tel. +43.4236.2218, feinkost@partl.at, www.partl.at"},{"name":" Zum Goldenen Ochsen","address":"Hauptplatz 30\n ","postcode":"9100","city":"Völkermarkt","countrycode":"  A","latitude":"46.660232","longitude":"14.633696","details":"Gasthaus, von bodenständiger Hausmannskost bis gesunder Küche mit Vollwert- bzw. Trennkost"},{"name":" Hotelchen Döllacher Dorfwirtshaus","address":"Döllach 79\n ","postcode":"9843","city":"Großkirchheim","countrycode":"  A","latitude":"46.972821","longitude":"12.895612","details":"500 Jahre altes typisches Wirtshaus mit 13 Zimmern und regionaler frischer Küche"},{"name":" Gasthof Postwirt","address":"Hauptstraße 64\n ","postcode":"9871","city":"Seeboden","countrycode":"  A","latitude":"46.817162","longitude":"13.515210","details":"Restaurant, www.postwirt.at"},{"name":" Café Bäckerei Gregori","address":"Finkensteiner Straße 11\n ","postcode":"9585","city":"Finkenstein-Gödersdorf","countrycode":"  A","latitude":"46.561249","longitude":"13.838194","details":"Tel. +43.4257.2010, j.gregori@aon.at"},{"name":" Bäckerei-Café Löcker","address":"Postplatz 2\n ","postcode":"5582","city":"St. Michael im Lungau","countrycode":"  A","latitude":"47.097160","longitude":"13.637653","details":"Tel. +43.6477.7928, So. Ruhetag"},{"name":" Edelweissalm","address":"Turracherhöhe 270\n ","postcode":"8864","city":"Predlitz-Turrach","countrycode":"  A","latitude":"46.923713","longitude":"13.868785","details":"Restaurant mit heimischer Küche, Tel. +43.4275.26731, ruweka@aon.at"},{"name":" Wald4ler Stubn","address":"Wiedner Hauptstraße 89\n ","postcode":"1050","city":"Wien","countrycode":"  A","latitude":"48.186574","longitude":"16.364059","details":"Restaurant, österreichische Küche"},{"name":" 15 süße Minuten Café - Bistro","address":"Favoritenstraße 45\n ","postcode":"1040","city":"Wien","countrycode":"  A","latitude":"48.187486","longitude":"16.373563","details":"Café, Bistro, Konditorei"},{"name":" Café Creativ (Diakoniecafé)","address":"Martin-Luther-Straße 14 (im Krankenhaus Waiern)\n ","postcode":"9560","city":"Feldkirchen in Kärnten","countrycode":"  A","latitude":"46.733639","longitude":"14.086433","details":"Tel. +43.4276.2201.300, auch Speisen"},{"name":" See Restaurant Saag","address":"Saag 11\n ","postcode":"9212","city":"Techelsberg","countrycode":"  A","latitude":"46.626637","longitude":"14.090943","details":"österreichisch-mediterrane Küche, 3 Hauben, Mo (u. Di) Ruhetag, Tel. +43.4272.43501, office@saag-ja.at, www.saag-ja.at"},{"name":" Bäckerei Café Taumberger","address":"Villacher Straße 165\n ","postcode":"9020","city":"Klagenfurt","countrycode":"  A","latitude":"46.619598","longitude":"14.278658","details":"Tel. +43.463.210727.1, office@taumberger.co.at, www.taumberger.co.at"},{"name":" Restaurant Mirli","address":"Heinratsberg 69\n ","postcode":"3011","city":"Tullnerbach","countrycode":"  A","latitude":"48.212510","longitude":"16.075942","details":"gehobene österreichische Gastronomie, Tel. +43.664.2223131, www.mirli.at"},{"name":" Ristorante Pizzeria Venezia","address":"Waldweg 1\n ","postcode":"9560","city":"Feldkirchen in Kärnten-Oberglan","countrycode":"  A","latitude":"46.694999","longitude":"14.124662","details":"Tel. +43.4276.37569"},{"name":" Thalia Kebap","address":"Thaliastraße 64\n ","postcode":"1160","city":"Wien","countrycode":"  A","latitude":"48.210456","longitude":"16.326879","details":"Dönerbude und türkisches Restaurant in Einem"},{"name":" La Bottega","address":"Siebenhügelstraße 3\n ","postcode":"9020","city":"Klagenfurt","countrycode":"  A","latitude":"46.613809","longitude":"14.291411","details":"Italienisch, So. geschlossen, Tel. +43.463.218121, info@labottegakl.com, www.labottegakl.com"},{"name":" Restaurant Skopik und Lohn","address":"Leopoldsgasse 17\n ","postcode":"1020","city":"Wien","countrycode":"  A","latitude":"48.220117","longitude":"16.376647","details":"Restaurant/Bar, www.skopikundlohn.at"},{"name":" Restaurant Vincent","address":"Große Pfarrgasse 7\n ","postcode":"1020","city":"Wien","countrycode":"  A","latitude":"48.218870","longitude":"16.378029","details":"Haubenlokal, www.restaurant-vincent.at"},{"name":" Pizzeria Mari","address":"Leopoldsgasse 23a\n ","postcode":"1020","city":"Wien","countrycode":"  A","latitude":"48.219353","longitude":"16.376945","details":"Pizzeria, www.pizzamari.at"},{"name":" Repubblica del Vino","address":"Florianigasse 50\n ","postcode":"1080","city":"Wien","countrycode":"  A","latitude":"48.212400","longitude":"16.344914","details":"Italienisch, Tel. +43.650.4620335, Di-Sa 18-2"},{"name":" Naturbäckerei Lagler","address":"10. Oktober-Straße 1\n ","postcode":"9500","city":"Villach","countrycode":"  A","latitude":"46.612538","longitude":"13.846073","details":"Bäckerei mit Kaffeehaus, Tel. +43.4242.24404"},{"name":" Naturbäckerei Lagler","address":"Bahnhofstraße 17\n ","postcode":"9500","city":"Villach","countrycode":"  A","latitude":"46.617678","longitude":"13.848614","details":"Bäckerei mit Kaffeehaus, Tel. +43.4242.24408, Sa./So. geschlossen"},{"name":" Gasthof zum Dorfschmied","address":"Marktstraße 16\n ","postcode":"9373","city":"Klein St. Paul","countrycode":"  A","latitude":"46.835664","longitude":"14.540246","details":"Produkte aus eig. Landwirtschaft, 1 Haube, Tel. +43.4264.2280, zumdorfschmied@aon.at, www.zumdorfschmied.at"},{"name":" Camelot House Restaurant","address":"Rechte Wienzeile 21\n ","postcode":"1040","city":"Wien","countrycode":"  A","latitude":"48.198059","longitude":"16.363148","details":"Ritterrestaurant, Eventrestaurant, österreichische und ungarische Küche, www.camelot-restaurant.at"},{"name":" Hellas 47","address":"Möderndorf 47\n ","postcode":"9620","city":"Hermagor","countrycode":"  A","latitude":"46.613721","longitude":"13.366124","details":"griechisches Restaurant u. Cafè, Mi. Ruhetag, Tel. +43.4282.44701, hellas47@live.at, www.hellas47.at"},{"name":" Eisgrotte","address":"Getreidegasse 40\n ","postcode":"5020","city":"Salzburg","countrycode":"  A","latitude":"47.800103","longitude":"13.041239","details":"Eissalon, Tel. +43.662.843157, eisgrotte@aon.at, www.eisgrotte.at"},{"name":" Potatoes & Co","address":"Kasernenstraße 1\n ","postcode":"5073","city":"Wals-Himmelreich","countrycode":"  A","latitude":"47.792362","longitude":"12.989325","details":"Mexikanisch-Italienisch, SO+FEI geschlossen, Tel. +43.662.908266, office@potatoes.at, www.potatoes.at"},{"name":" Jauseneck Wurstsemmerl","address":"Markt 22\n ","postcode":"5450","city":"Werfen","countrycode":"  A","latitude":"47.477419","longitude":"13.188335","details":"einfache Speisen (auch warm), Tel. +43.6468.39944"},{"name":" Bäckerei-Café-Konditorei Bauer","address":"Pyrkerstraße 12\n ","postcode":"5630","city":"Bad Hofgastein","countrycode":"  A","latitude":"47.170259","longitude":"13.108290","details":"eigenes Bio-Sortiment, Tel. +43.6432.85144, info@baeckerei-bauer.at, www.baeckerei-bauer.at"},{"name":" Pavillon","address":"Seecorso 8\n ","postcode":"9220","city":"Velden","countrycode":"  A","latitude":"46.612624","longitude":"14.042676","details":"Restaurant, mehrfach preisgekrönt, Tel. +43.4274.51109, stefan@sternad-velden.at, www.sternad-velden.at/Default.aspx?SIid=33&LAid=1"},{"name":" Trattoria da Angelo","address":"Liliengasse 3\n ","postcode":"1010","city":"Wien","countrycode":"  A","latitude":"48.207102","longitude":"16.372965","details":"www.trattoria-angelo.at"},{"name":" Edelmann Biergasthof","address":"Gersthofer Straße 21\n ","postcode":"1180","city":"Wien","countrycode":"  A","latitude":"48.227669","longitude":"16.327028","details":"Tel. +43.1.4783052, www.das-edelmann.at"},{"name":" Café-Konditorei Arnberger","address":"Hauptstraße 29\n ","postcode":"7000","city":"Eisenstadt","countrycode":"  A","latitude":"47.846524","longitude":"16.523588","details":"Tel: +43.2682.67053, www.konditorei-arnberger.at"},{"name":" Arcobaleno Eissalon","address":"Carolinenstr. 18\n ","postcode":"9073","city":"Klagenfurt-Viktring","countrycode":"  A","latitude":"46.590924","longitude":"14.272836","details":"Tel. +43.463.504680"},{"name":" Mr & Mrs Smith Coffee & Bakery","address":"Salierigasse 30\n ","postcode":"1180","city":"Wien","countrycode":"  A","latitude":"48.231409","longitude":"16.327563","details":"Tel. +43.664.9349994, www.mrandmrssmithcoffee.com"},{"name":" Eis-Cafe Felice","address":"Gersthofer Straße 2\n ","postcode":"1180","city":"Wien","countrycode":"  A","latitude":"48.226675","longitude":"16.325450","details":"Tel. +43.1.4781211, www.felice-eis-cafe.bplaced.net"},{"name":" Tee Stube Gersthof","address":"Gersthofer Straße 6\n ","postcode":"1180","city":"Wien","countrycode":"  A","latitude":"48.232285","longitude":"16.328603","details":"Tel. +43.699.19020275, www.facebook.com/pages/Tee-Stube-Gersthof/183804811651394"},{"name":" Espresso Hobby","address":"Währinger Straße 9\n ","postcode":"1090","city":"Wien","countrycode":"  A","latitude":"48.217002","longitude":"16.359190","details":"Tel. +43.1.4052248, www.espressohobby.at"},{"name":" Wok & More","address":"Karlsplatz 1\n ","postcode":"1010","city":"Wien","countrycode":"  A","latitude":"48.201037","longitude":"16.369494","details":"Tel. +43.1.5057603, www.wokandmore.at"},{"name":" Mama's Kitchen","address":"Krugerstraße 5\n ","postcode":"1010","city":"Wien","countrycode":"  A","latitude":"48.204062","longitude":"16.371263","details":"Tel. +43.1.5129478, www.mamas-kitchen.at"},{"name":" Stadtboden","address":"Krugerstraße 8\n ","postcode":"1010","city":"Wien","countrycode":"  A","latitude":"48.203836","longitude":"16.371297","details":"Tel. +43 1 512 16 37, www.stadtboden.at"},{"name":" Ristorante San Carlo","address":"Mahlerstraße 3\n ","postcode":"1010","city":"Wien","countrycode":"  A","latitude":"48.202964","longitude":"16.370852","details":"Italienisch, Tel. +43.1.5138984, www.san-carlo.at"},{"name":" Vapiano Moulin Rouge","address":"Walfischgasse 11\n ","postcode":"1010","city":"Wien","countrycode":"  A","latitude":"48.203331","longitude":"16.371920","details":"Italienisch, Tel. + 43.1.5122277, www.vapiano.at"},{"name":" Meister Xiao","address":"Gersthofer Straße 70\n ","postcode":"1180","city":"Wien","countrycode":"  A","latitude":"48.235694","longitude":"16.326890","details":"Chinesisch, Tel. +43.1.4794156"},{"name":" Orient Gourmet","address":"Herbeckstraße 73\n ","postcode":"1180","city":"Wien","countrycode":"  A","latitude":"48.232269","longitude":"16.317723","details":"Chinesisch, Tel. +43.1.4791342"},{"name":" Piroschka","address":"Gersthofer Straße 140\n ","postcode":"1180","city":"Wien","countrycode":"  A","latitude":"48.237671","longitude":"16.321882","details":"Ungarisch, Tel. +43.1.7344234, www.piroschka.at"},{"name":" Restaurant Diwan","address":"Märzstraße 51\n ","postcode":"1150","city":"Wien ","countrycode":"  A","latitude":"48.197797","longitude":"16.327105","details":"Türkisch mediterran"},{"name":" Terra Rossa","address":"Roterdstraße 3\n ","postcode":"1160","city":"Wien ","countrycode":"  A","latitude":"48.218598","longitude":"16.305975","details":"Mediterran"},{"name":" Sukothai","address":"Domgasse 18\n ","postcode":"9020","city":"Klagenfurt","countrycode":"  A","latitude":"46.622852","longitude":"14.309562","details":"Thailändisch, Tel. +43.463.501230"},{"name":" Cafe-Restaurant Zeitgeist","address":"Primoschgasse 3\n ","postcode":"9020","city":"Klagenfurt","countrycode":"  A","latitude":"46.610780","longitude":"14.328941","details":"Tel. +43.463.3875150, essen@das-zeitgeist.at, www.das-zeitgeist.at"},{"name":" Mensa Klagenfurt","address":"Universitätsstraße 90\n ","postcode":"9020","city":"Klagenfurt","countrycode":"  A","latitude":"46.618044","longitude":"14.268422","details":"Tel. +43.463.239487, mensa.klgft@mensen.at, menu.mensen.at/index/index/locid/45"},{"name":" Restaurant Sicher","address":"Mühlenweg 2\n ","postcode":"9121","city":"Tainach","countrycode":"  A","latitude":"46.631745","longitude":"14.536874","details":"heimische Fischküche, 3 Hauben, Tel. +43.4239.2638, office@sicherrestaurant.at, www.sicherrestaurant.at"},{"name":" Berghof","address":"Sonnenalpe Nassfeld 1\n ","postcode":"9620","city":"Hermagor","countrycode":"  A","latitude":"46.560328","longitude":"13.276020","details":"Hotel-Restaurant-Pizzeria-Café-Bar, Tel. +43.4285.8271, hotel@berghof.or.at, www.berghof.or.at"},{"name":" Klammwirt","address":"Möderndorf 65\n ","postcode":"9620","city":"Hermagor","countrycode":"  A","latitude":"46.600957","longitude":"13.363557","details":"hochpreisiges Kärntner Bauernwirtshaus, Tel. +43.664.4421389, info@ideendesigner.eu"},{"name":" Gasthof-Hotel zur Post","address":"Unterbergen 3\n ","postcode":"9163","city":"Ferlach-Unterbergen","countrycode":"  A","latitude":"46.520888","longitude":"14.279391","details":"Kräuterküche, Kärntner Spezialitäten, Tel. +43.4227.2078, info@hotelzurpost.at, www.hotelzurpost.at"},{"name":" Restaurant-Café Reichmann","address":"Seenweg 1\n ","postcode":"9122","city":"St.Kanzian-Seelach","countrycode":"  A","latitude":"46.606848","longitude":"14.573918","details":"Grillspezialitäten, Konditorei, Eissalon, Tel. +43.4239.2338-34, hotel@hotelreichmann.at www.hotelreichmann.at/restaurant-cafe-reichmann.html"},{"name":" Bäckerei Café Weissensteiner","address":"Millstätter Straße 7\n ","postcode":"9545","city":"Radenthein","countrycode":"  A","latitude":"46.797835","longitude":"13.696467","details":"Tel. +43.4246.30380, baeckerei@weissensteiner.at, www.weissensteiner.at"},{"name":" Bäckerei Konditorei Meixner-Müller","address":"Morgensternplatz 1\n ","postcode":"9871","city":"Seeboden","countrycode":"  A","latitude":"46.815938","longitude":"13.508324","details":"Tel. +43.4762.81981, office@meixner-mueller.at, www.meixner-mueller.at"},{"name":" JUFA Bleiburg","address":"Dr. Ludwig Herbst Str. 1\n ","postcode":"9150","city":"Bleiburg","countrycode":"  A","latitude":"46.585233","longitude":"14.800263","details":"Bistro-Café/Gästehaus, Tel. +43.5.7083.430, www.jufa.at"},{"name":" Der Gurktaler","address":"Hauptstraße 199\n ","postcode":"9210","city":"Pörtschach am Wörthersee","countrycode":"  A","latitude":"46.636016","longitude":"14.141245","details":"Café-Bäckerei-\"Genußspezialitäten\", Tel. +43.664.1378811, dergurktaler@gmx.at"},{"name":" Gasthaus zum schwarzen Ochsen","address":"Untere Hauptstraße 6\n ","postcode":"3142","city":"Murstetten","countrycode":"  A","latitude":"48.238424","longitude":"15.829218","details":"Österreichisch, Di+Sa Ruhetag, Tel. +43.2784.2267, www.blackox.at"},{"name":" Bäckerei Konditorei Zorn","address":"Mühlgasse 44\n ","postcode":"8160","city":"Weiz","countrycode":"  A","latitude":"47.214946","longitude":"15.626608","details":"Tel. +43.3172.2788, zorn@weiz.com"},{"name":" Bioinsel Rosenberger","address":"Hans-Sutter-Gasse 1\n ","postcode":"8160","city":"Weiz","countrycode":"  A","latitude":"47.214675","longitude":"15.624874","details":"Bio-Supermarkt mit Café, Tel. +43.3172.42028, office@bioinsel.at, www.bioinsel.at"},{"name":" Kunstcafe Stegersbach","address":"Hauptplatz 25\n ","postcode":"7551","city":"Stegersbach","countrycode":"  A","latitude":"47.159480","longitude":"16.167014","details":"Mo-Fr Mittagsmenüs, Tel. +43.3326.53133, galerie@kunstcafe-silvia.at"},{"name":" Eissalon Dolce Crema","address":"Neuer Platz 10\n ","postcode":"9020","city":"Klagenfurt","countrycode":"  A","latitude":"46.623564","longitude":"14.308263","details":"Ital. Eis auf natürlicher Basis, Tel. +43.463.901980, www.eissalon-klagenfurt.at"},{"name":" Zur Alten Käserei","address":"Egger Alm\n ","postcode":"9624","city":"Hermagor-Egg","countrycode":"  A","latitude":"46.585851","longitude":"13.380139","details":"Almgasthaus, Sennerei, regionale Spezialitäten, Tel. +43.650.3910520, www.tinyurl.com/mpd5o2n"},{"name":" NF Koschutahaus","address":"Zell-Koschuta 4\n ","postcode":"9170","city":"Zell","countrycode":"  A","latitude":"46.451787","longitude":"14.387175","details":"Hausmannskost aus der Kärntner Schmankerlküche (meist eig. Erzeugung), Tel. +43.4227.7110, www.tinyurl.com/koschutahaus"},{"name":" Café Moment's","address":"Ferdinand-Wedenig-Str. 4A (Viktringer Platz)\n ","postcode":"9073","city":"Klagenfurt-Viktring","countrycode":"  A","latitude":"46.593714","longitude":"14.270262","details":"Café-Restaurant, ungarische Spezialitäten"},{"name":" Graf's Collage / Graf's Signum","address":"Bahnhofplatz 1 (EKZ Tenorio)\n ","postcode":"9400","city":"Wolfsberg","countrycode":"  A","latitude":"46.842596","longitude":"14.840399","details":"Cafè-Konditorei-Bistro-Confiserie-Eis, Tel. +43.4352.36035, office@team-graf.at, www.team-graf.at/Main/Grafs.html"},{"name":" Heuriger Mayer","address":"Weichselgasse 24\n ","postcode":"2500","city":"Baden","countrycode":"  A","latitude":"48.001173","longitude":"16.235819","details":"Tel. +43225287961, ilse.mayer@baerenschwanzel.at, www.baerenschwanzel.at"},{"name":" San Stefano","address":"Ameisgasse 7\n ","postcode":"1140","city":"Wien","countrycode":"  A","latitude":"48.189791","longitude":"16.299116","details":"Pizzeria, mediterran, Schanigarten, www.sanstefano.at"},{"name":" Pizzeria Luna Rossa","address":"Währingerstraße 74\n ","postcode":"1090","city":"Wien","countrycode":"  A","latitude":"48.223884","longitude":"16.350981","details":"www.lunarossa.at"},{"name":" Restaurant Glasweise","address":"Währingerstraße 74\n ","postcode":"1090","city":"Wien","countrycode":"  A","latitude":"48.223884","longitude":"16.350981","details":"www.glasweise.com"},{"name":" Ristorante Roma","address":"Kutschkergasse 39\n ","postcode":"1180","city":"Wien","countrycode":"  A","latitude":"48.226610","longitude":"16.344594","details":"www.ristorante-roma.at"},{"name":" Victoria","address":"Dornerplatz 13\n ","postcode":"1170","city":"Wien","countrycode":"  A","latitude":"48.220918","longitude":"16.334372","details":"Espresso, Café, Billardlokal"},{"name":" Konditorei Koloini","address":"Renngasse 5\n ","postcode":"9020","city":"Klagenfurt","countrycode":"  A","latitude":"46.624905","longitude":"14.309037","details":"Tel. +43.676.3558240, office@koloini.com, www.koloini.com"},{"name":" Gasthaus Kalmusbad","address":"Badstraße 1\n ","postcode":"9065","city":"Ebenthal in Kärnten","countrycode":"  A","latitude":"46.600975","longitude":"14.34352'","details":"einfache Küche, Mai-Oktober, Tel. +43.463.33498, kalmusbad@aon.at"},{"name":" Café-Restaurant Mailenstein","address":"Mail 11 (ÖAMTC-Fahrtechnikzentrum)\n ","postcode":"9300","city":"St.Veit/Glan","countrycode":"  A","latitude":"46.807231","longitude":"14.412645","details":"Speisen nur mittags, Tel. +43.664.5005066"},{"name":" Alexander's Küchenmeisterei","address":"Linzerstraße 120\n ","postcode":"1140","city":"Wien","countrycode":"  A","latitude":"48.194055","longitude":" 16.29927","details":"Restaurant, www.kuechenmeisterei.at"},{"name":" Zina's","address":"Praterstraße 55\n ","postcode":"1020","city":"Wien","countrycode":"  A","latitude":"48.21702&","longitude":"16.388304","details":"Mediterran, www.zinas.at"},{"name":" MARIO Pasta-Grill-Bar","address":"Lainzer Straße 2\n ","postcode":"1130","city":"Wien","countrycode":"  A","latitude":"48.186265","longitude":"16.298076","details":"Mediterran, www.plachutta.at"},{"name":" Plachutta Hietzing","address":"Auhofstraße 1\n ","postcode":"1130","city":"Wien","countrycode":"  A","latitude":"48.189037","longitude":"16.288598","details":"www.plachutta.at "},{"name":" ON MARKET","address":"Linke Wienzeile 36\n ","postcode":"1060","city":"Wien","countrycode":"  A","latitude":"48.197651","longitude":"16.360303","details":"International, Asiatisch, www.on-market.at"},{"name":" Restaurant Casa","address":"Hof 9\n ","postcode":"9844","city":"Heiligenblut","countrycode":"  A","latitude":"47.039448","longitude":"12.841126","details":"Internationale und heimische Spezialitäten, italienische Affinität, casa@speed.at, Tel. +43.4824.24610, ab 10h, Küche bis 21h, kein Ruhetag"},{"name":" OEAV Glocknerhaus","address":"Winkl 33 (\"Elisabeth-Ruhe\")\n ","postcode":"9844","city":"Heiligenblut","countrycode":"  A","latitude":"47.069694","longitude":"12.768307","details":"Kärntner Küche, Tel. +43.676.9448284, info@dasglocknerhaus.at, www.dasglocknerhaus.at"},{"name":" Parkcafé","address":"Döllach 185\n ","postcode":"9843","city":"Großkirchheim","countrycode":"  A","latitude":"46.973898","longitude":"12.891315","details":"Café/Restaurant, Tel. +43.664.75085404"},{"name":" Gasthof Fuscherlacke (Mankeiwirt)","address":"\n ","postcode":"5672","city":"Fusch","countrycode":"  A","latitude":"47.110867","longitude":"12.832878","details":"Spezialitäten: Kaiserschmarren, \"Edelweiß-Teller\", Tel. +43.6545.6779, info@fuscherlacke.at, www.fuscherlacke.at"},{"name":" Bäckerei Café Weissensteiner","address":"Dorfstraße 58\n ","postcode":"9546","city":"Bad Kleinkirchheim","countrycode":"  A","latitude":"46.813061","longitude":"13.793044","details":"Tel. +43.4240.219, baeckerei@weissensteiner.at, www.weissensteiner.at"},{"name":" Jausenstation Priesshütte","address":"Nockalmstraße\n ","postcode":"9565","city":"Ebene Reichenau","countrycode":"  A","latitude":"46.898155","longitude":"13.813268","details":"einfache Küche, Tel.+43.664.2106773, priesshuette@gmx.at, www.priesshuette.at"},{"name":" Veggie Bräu","address":"Schulgasse 8 \n ","postcode":"2000","city":"Stockerau","countrycode":"  A","latitude":"48.386564","longitude":"16.210737","details":"Vegetarische Speisen und Getränke vom Biobauernhof, ab 18h, www.veggie-bräu.at"},{"name":" Allegretto Espressobar / Dussmann Deli","address":"Feschnigstraße 11 (Klinikum)\n ","postcode":"9020","city":"Klagenfurt","countrycode":"  A","latitude":"46.633905","longitude":"14.307251","details":"Tel. +43.463.908055"},{"name":" Café Auszeit","address":"Villacherstraße 24\n ","postcode":"9560","city":"Feldkirchen in Kärnten","countrycode":"  A","latitude":"46.72148&","longitude":"14.087766","details":"Tel. +43.660.1624678"},{"name":" Il Gelato","address":"10. Oktoberstraße 26\n ","postcode":"9560","city":"Feldkirchen in Kärnten","countrycode":"  A","latitude":"46.723122","longitude":"14.096078","details":"Eissalon-Café, Tel. +43.4276.38651"},{"name":" Bäckerei Café Weissensteiner","address":"Moosweg (Gewerbepark)\n ","postcode":"9521","city":"Treffen","countrycode":"  A","latitude":"46.651384","longitude":"13.874308","details":"Tel. +43.4248.2731, baeckerei@weissensteiner.at, www.weissensteiner.at"},{"name":" eduCARE","address":"Eichrainweg 7-9\n ","postcode":"9521","city":"Treffen","countrycode":"  A","latitude":"46.656348","longitude":"13.881831","details":"Restaurant-Café-Hotel, Neuinterpretationen von traditionellen Kärntner Gerichten (gehobene Küche), Tel. +43.4248.29777, office@educare.co.at, www.educare.co.at"},{"name":" Café Bäckerei Konditorei Wendt","address":"Hauptplatz 19\n ","postcode":"9800","city":"Spittal/Drau","countrycode":"  A","latitude":"46.797683","longitude":"13.496875","details":"Tel. +43.4762.2139, wolfgang.wendt@aon.at"},{"name":" Gasthof Edelweiß","address":"Gnoppnitz 26\n ","postcode":"9761","city":"Greifenburg","countrycode":"  A","latitude":"46.761745","longitude":"13.186425","details":"Kärntner Spezialitäten, Tel. +43.4712.427, bg.edelweiss.fw@gmx.net, www.tinyurl.com/gasthofedelweiss"},{"name":" Café Restaurant Römerstube","address":"Warmbachweg 16 (im Tenniscamp)\n ","postcode":"9504","city":"Villach-Warmbad","countrycode":"  A","latitude":"46.586193","longitude":"13.829843","details":"Tel. +43.4242.32564, office@sportwarmbad.at, www.sportwarmbad.at/?link=anlage"},{"name":" Bäckerei Café Weissensteiner","address":"Widmanngasse 46 (Hans-Gasser-Platz)\n ","postcode":"9500","city":"Villach","countrycode":"  A","latitude":"46.612411","longitude":"13.844216","details":"Tel. +43.4242.24331, baeckerei@weissensteiner.at, www.weissensteiner.at"},{"name":" Familie Barbach","address":"Rudolfgasse 8\n ","postcode":"2380","city":"Perchtoldsdorf","countrycode":"  A","latitude":"48.116905","longitude":"16.261808","details":"Heuriger, www.weinbau-barbach.at"},{"name":" Pizzeria Ristorante Mamma Mia","address":"Kleindorf 10\n ","postcode":"9831","city":"Flattach","countrycode":"  A","latitude":"46.93466&","longitude":"13.112694","details":"Italienisch und Mexikanisch, Tel. +43.4785.26425"},{"name":" Trattoria Siciliana","address":"Kardinalplatz 2\n ","postcode":"9020","city":"Klagenfurt","countrycode":"  A","latitude":"46.624401","longitude":"14.312105","details":"Ristorante-Pizzeria (sizilianische Spezialitäten), Tel. +43.463.591510"},{"name":" Bäckerei Café Weissensteiner","address":"Triglavstraße 28 (BAUHAUS)\n ","postcode":"9500","city":"Villach","countrycode":"  A","latitude":"46.590514","longitude":"13.836282","details":"Tel. +43.4242.35209, baeckerei@weissensteiner.at, www.weissensteiner.at"},{"name":" Gasthaus Jank \"Zum Rudi\"","address":"Egger Alm 19\n ","postcode":"9624","city":"Hermagor-Egg","countrycode":"  A","latitude":"46.585887","longitude":"13.380816","details":"einfache heimische Küche, Tel. +43.676.9343605, www.zumrudi.at"},{"name":" Bäckerei-Café-Konditorei Moritz","address":"Tröpolach 64\n ","postcode":"9620","city":"Hermagor-Tröpolach","countrycode":"  A","latitude":"46.614554","longitude":"13.280716","details":"Tel. +43.4285.23165, baeckerei-moritz@gmx.at"},{"name":" Backhaus Villach","address":"Maria Gailer Straße 36\n ","postcode":"9500","city":"Villach","countrycode":"  A","latitude":"46.603942","longitude":"13.867926","details":"Café-Bäckerei - auch Pizza und Burek, Tel. +43.664.9134346, bestellung@backhaus-villach.at, www.backhaus-villach.at"},{"name":" Arena Café","address":"Villacher Alpenstraße 2\n ","postcode":"9500","city":"Villach","countrycode":"  A","latitude":"46.603482","longitude":"13.81156'","details":"Tel. +43.4242.54488-22, office@villacheralpenarena.at, www.tinyurl.com/arenacafe"},{"name":" Koinonia","address":"Klostergasse 37\n ","postcode":"1180","city":"Wien","countrycode":"  A","latitude":"16.334931","longitude":"48.228311","details":"www.koinonia.co.at"},{"name":" Jonathan & Sieglinde","address":"Riemergasse 16\n ","postcode":"1010","city":"Wien","countrycode":"  A","latitude":"16.376181","longitude":"48.206597","details":"www.jonathan-sieglinde.com"},{"name":" Restaurant Cavaliere","address":"Köllnerhofgasse 4\n ","postcode":"1010","city":"Wien","countrycode":"  A","latitude":"16.375606","longitude":"48.210183","details":"Italienisch"},{"name":" JUFA Nockberge","address":"Zirbenweg 8\n ","postcode":"9571","city":"Sirnitz-Hochrindl","countrycode":"  A","latitude":"46.866661","longitude":"13.993437","details":"Restaurant-Café/Gästehaus, Tel. +43.5.7083.450, www.jufa.at"},{"name":" Chopstix","address":"Paulitschgasse 11\n ","postcode":"9020","city":"Klagenfurt","countrycode":"  A","latitude":"46.621641","longitude":"14.309364","details":"asiatisch - \"All you can eat\" und à la carte, Tel. +43.463.598868"},{"name":" unixo","address":"Alter Platz 14\n ","postcode":"9020","city":"Klagenfurt","countrycode":"  A","latitude":"46.625558","longitude":"14.310421","details":"Coffeeshop & Chocolateria, Tel. +43.463.302325"},{"name":" Cafe Bar LustGARTEN","address":"Rosentaler Straße 145\n ","postcode":"9020","city":"Klagenfurt","countrycode":"  A","latitude":"46.605276","longitude":"14.298179","details":"Tel. +43.463.230190, office@lustgarten.at, www.lustgarten.at/cafe.html"},{"name":" Das Hartmann","address":"Paul Anton Keller Straße 50\n ","postcode":"8430","city":"Kaindorf an der Sulm","countrycode":"  A","latitude":"46.802297","longitude":"15.542906","details":"Fonduerestaurant, Tel. +43.3452.74860, facebook.com/das-hartmann, christopher@das"},{"name":" Gasthaus Reinthaler","address":"Gluckgasse 5\n ","postcode":"1010","city":"Wien","countrycode":"  A","latitude":"48.205606","longitude":"16.369134","details":"gasthaus-reinthaler.npage.at"},{"name":" Halleiner Hütte (Halleinerhaus)","address":"Spumberg 55\n ","postcode":"5421","city":"Adnet","countrycode":"  A","latitude":"47.690153","longitude":"13.185996","details":"Naturfreundehaus mit einheimischer Küche, Tel. +43.6240.21702, office@halleinerhaus.at, www.halleinerhütte.at"},{"name":" Karlhütte","address":"Turracher Höhe-Karlsiedlung\n ","postcode":"9565","city":"Ebene Reichenau","countrycode":"  A","latitude":"46.905432","longitude":"13.884154","details":"Traditionelle Kärntner Küche mit biologischen heimischen Zutaten, Tel. +43.680.1271741, karlhuette@turra.ch, www.turra.ch"},{"name":" Café Milo","address":"Kirchgasse 4\n ","postcode":"9560","city":"Feldkirchen in Kärnten","countrycode":"  A","latitude":"46.724840","longitude":"14.092487","details":"Tel. +43.664.1644419"},{"name":" Kur- und Rehabzentrum Althofen","address":"Moorweg 30\n ","postcode":"9330","city":"Althofen","countrycode":"  A","latitude":"46.873453","longitude":"14.493182","details":"Café und Restaurant im \"Haus 1\", Tel. +43.4262.2071.0, althofen@humanomed.at, www.humanomed.at/humanomed-zentrum-althofen"},{"name":" Genuss Wirt am Pyramidenkogel","address":"Linden 62\n ","postcode":"9074","city":"Keutschach","countrycode":"  A","latitude":"46.609118","longitude":"14.144961","details":"Saisonale Spezialitäten u. leichte Küche, Tel. +43.4273.22262, office@genusswirt-pyramidenkogel.at, www.genusswirt-pyramidenkogel.at"},{"name":" PiPaPo Marktrestaurant","address":"Gewerbepark 1\n ","postcode":"9161","city":"Maria Rain","countrycode":"  A","latitude":"46.561836","longitude":"14.282988","details":"Pizza, Pasta, Pomodoro, Tel. +43.4227.84100, office@pipapo.at, www.pipapo.at"},{"name":" Café Bäckerei Mark","address":"Kötschach 551\n ","postcode":"9640","city":"Kötschach-Mauthen","countrycode":"  A","latitude":"46.672296","longitude":"13.002769","details":"Tel. +43.4715.24886"},{"name":" Puschtra Alm Restaurant","address":"Arnbach 41\n ","postcode":"9920","city":"Sillian","countrycode":"  A","latitude":"46.742824","longitude":"12.387373","details":"Südtiroler Spezialitäten, Tel. +43.484.220142, info@puschtra-alm.com, www.tinyurl.com/puschtra"},{"name":" Alpengasthaus Haagalm Gebr. Astner OG","address":"Penningberg, Innerpenningberg 50 \n ","postcode":"6361","city":"Hopfgarten","countrycode":"  A","latitude":"47.399396","longitude":"12.111711","details":"Gasthaus im Skigebiet Kelchsau, Rodelbahn Start"},{"name":" Weinbau Zechmeister","address":"Hochstraße 64\n ","postcode":"2380","city":"Perchtoldsdorf","countrycode":"  A","latitude":"48.126464","longitude":"16.262173","details":"Heuriger, www.weinbau-zechmeister.at"},{"name":" Bunkerei Augarten","address":"Obere Augartenstraße 1a\n ","postcode":"1020","city":"Wien","countrycode":"  A","latitude":"48.224294","longitude":"16.373948","details":"Gastgarten, Kulturprogramm, www.bunkerei.at"},{"name":" Oben","address":"Urban-Loritz-Platz 2\n ","postcode":"1070","city":"Wien","countrycode":"  A","latitude":"48.202613","longitude":"16.337296","details":"Lokal in der städtischen Hauptbücherei, Aussicht über Wien, www.oben.at"},{"name":" Basilicum","address":"Arndtstraße 79\n ","postcode":"1120","city":"Wien","countrycode":"  A","latitude":"48.181769","longitude":"16.331465","details":"www.basilicum.at"},{"name":" Pure Living Bakery","address":"Altgasse 12\n ","postcode":"1130","city":"Wien","countrycode":"  A","latitude":"48.185393","longitude":"16.299378","details":"www.purelivingbakery.com"},{"name":" Pure Living Bakery","address":"Burggasse 68\n ","postcode":"1070","city":"Wien","countrycode":"  A","latitude":"48.204374","longitude":"16.347451","details":"www.purelivingbakery.com"},{"name":" Baristarie","address":"Linzer Straße 403/2B\n ","postcode":"1140","city":"Wien","countrycode":"  A","latitude":"48.201688","longitude":"16.258280","details":"www.baristarie.com/cafe"},{"name":" Chilinos","address":"Hütteldorfer Straße (Ecke Märzpark, Halle F/Stadthalle)\n ","postcode":"1150","city":"Wien","countrycode":"  A","latitude":"48.201443","longitude":"16.334055","details":"Mexikanisches Flair, www.chilinos.at"},{"name":" Da Maria","address":"Priesterhausgasse 3\n ","postcode":"9020","city":"Klagenfurt","countrycode":"  A","latitude":"46.625726","longitude":"14.311516","details":"italienisches Restaurant/Feinkostladen, Tel. +43.680.2450861"},{"name":" Cafe Bar 2Gether","address":"Bahnhofstraße 22\n ","postcode":"9020","city":"Klagenfurt","countrycode":"  A","latitude":"46.622573","longitude":"14.310674","details":"kleine Speisekarte, tgl. 1 Menü, Tel. +43.699.17177678, twogether@hotmail.com"},{"name":" Seestüberl beim Hebalm-See","address":"Pack 250a\n ","postcode":"9451","city":"Preitenegg","countrycode":"  A","latitude":"46.923241","longitude":"15.015826","details":"regionale Küche, Tel. +43.664.1005760, www.hebalm-seestueberl@aon.at, www.hebalm-seestueberl.at"},{"name":" Pizzeria EFE","address":"Dr.-Karl-Renner-Straße 4\n ","postcode":"8790","city":"Eisenerz","countrycode":"  A","latitude":"47.541175","longitude":"14.887928","details":"Tel. +43.664.6400250"},{"name":" Kim kocht im Restaurant","address":"Hoher Markt 12\n ","postcode":"1010","city":"Wien","countrycode":"  A","latitude":"48.210570","longitude":"16.373642","details":"Mo-Fr 11–23h, Sa 11–18h, Tel./Fax: +43.01.3190242, kimkocht@merkurhohermarkt.at, www.kimkocht.at"},{"name":" Pizzeria Ristorante Cipollino ","address":"Rückertgasse 33\n ","postcode":"1160","city":"Wien","countrycode":"  A","latitude":"48.217876","longitude":"16.318990","details":"Italienisches Restaurant, sehr große Pizzen, Tel. +43.1.4854866, pizza@cipollino.at, www.cipollino.at"},{"name":" Babette's","address":"Schleifmühlgasse 17\n ","postcode":"1040","city":"Wien","countrycode":"  A","latitude":"48.197594","longitude":"16.364674","details":"Kochbuch-Buchhandlung, an Wochentagen Mittagessen, www.babettes.at/de/unsere-geschaefte"},{"name":" Rebhuhn","address":"Berggasse 24\n ","postcode":"1090","city":"Wien","countrycode":"  A","latitude":"48.218654","longitude":"16.363929","details":"www.rebhuhn.at"},{"name":" Café Diglas ","address":"Wollzeile 10\n ","postcode":"1010","city":"Wien ","countrycode":"  A","latitude":"48.208646","longitude":"16.375275","details":"Café/Restaurant, www.diglas.at"},{"name":" Bäckerei Café Konditorei Schöffmann","address":"Herzog-Bernhard-Platz 5\n ","postcode":"9300","city":"St. Veit/Glan","countrycode":"  A","latitude":"46.767514","longitude":"14.359058","details":"Tel. +43.4212.214217, www.baeckerei-konditorei-schoeffmann.stadtausstellung.at"},{"name":" Cafe Katharina","address":"Schulgasse 4\n ","postcode":"4820","city":"Bad Ischl","countrycode":"  A","latitude":"47.71207&","longitude":"13.62258'","details":"Tel. +43.6132.22377, www.tinyurl.com/cafe-katharina"},{"name":" Bäckerei-Café-Bistro Schieder","address":"Ossiacher Bundesstraße 5\n ","postcode":"9560","city":"Feldkirchen in Kärnten","countrycode":"  A","latitude":"46.725035","longitude":"14.088077","details":"Pizza, Baguette, Tramezzini, Pasta; Tel. +43.4276.29888, office@schieder.at, www.schieder.at/?page_id=486"},{"name":" skybird","address":"Flughafenstraße 60 (Flughafen, 1. Stock)\n ","postcode":"9020","city":"Klagenfurt","countrycode":"  A","latitude":"46.650106","longitude":"14.324476","details":"Café-Restaurant, Tel. +43.463.44700, skybird@feinekuechekulterer.at, www.feinekuechekulterer.at/skybird.php"},{"name":" Café-Konditorei Fahrnberger","address":"St. Veiter Straße 144\n ","postcode":"9020","city":"Klagenfurt","countrycode":"  A","latitude":"46.641000","longitude":"14.314630","details":"Tel. +43.463.41136, office@fahrnberger.com, www.fahrnberger.com"},{"name":" Hoadkeller","address":"Hoadweg 31\n ","postcode":"2203","city":"Putzing","countrycode":"  A","latitude":"48.369847","longitude":"16.446687","details":"Heurigenrestaurant, Tel. +43.2245.3521"},{"name":" Wellen.Spiel","address":"Welterbe-Platz 1\n ","postcode":"3500","city":"Krems","countrycode":"  A","latitude":"48.416955","longitude":"15.601921","details":"Café-Restaurant, Tel. +43.2732.75055, www.wellenspiel.at"},{"name":" Orangerie","address":"Im Eichbüchl 7\n ","postcode":"4780","city":"Schärding","countrycode":"  A","latitude":"48.454779","longitude":"13.430504","details":"Restaurant, Tel. +43.7712.40619, www.orangerie-schaerding.at"},{"name":" OEAV Koralpenhaus","address":"Goding 50\n ","postcode":"9431","city":"St. Stefan im Lavanttal","countrycode":"  A","latitude":"46.790936","longitude":"14.956383","details":"einheimische Küche, Tel. +43.676.7926881, motschnig@live.at, www.alpenverein.at/wolfsberg/huetten/koralpenhaus.php"},{"name":" Bäckerei Café Weissensteiner","address":"Bambergerplatz 3-4\n ","postcode":"9560","city":"Feldkirchen in Kärnten","countrycode":"  A","latitude":"46.725602","longitude":"14.090813","details":"Tel. +43.4276.2356, baeckerei@weissensteiner.at, www.weissensteiner.at"},{"name":" Bäckerei Café Schöffmann","address":"Milleniumspark 1\n ","postcode":"9300","city":"St. Veit/Glan","countrycode":"  A","latitude":"46.754817","longitude":"14.336176","details":"Tel. +43.4212.214216, www.baeckerei-konditorei-schoeffmann.stadtausstellung.at"},{"name":" Bäckerei Café Konditorei Stocklauser","address":"Obirstraße 13a\n ","postcode":"9020","city":"Klagenfurt","countrycode":"  A","latitude":"46.615727","longitude":"14.285885","details":"Tel. +43.463.220627, office@stocklauser.at"},{"name":" Kolar","address":"Kleeblattgasse 5\n ","postcode":"1010","city":"Wien","countrycode":"  A","latitude":"48.210647","longitude":"16.369997","details":"große Auswahl leckerer Fladen, www.flade.at"},{"name":" Cafe COMO","address":"Nautilusweg 12 (Universität)\n ","postcode":"9020","city":"Klagenfurt","countrycode":"  A","latitude":"46.617101","longitude":"14.266390","details":"Tel. +43.664.2480680, www.como1.at"},{"name":" IDDU'S","address":"Paradeisergasse 4\n ","postcode":"9020","city":"Klagenfurt","countrycode":"  A","latitude":"46.623623","longitude":"14.309381","details":"klassische, gehobene italienische Snackbar, Tel. +43.463.908308, info@iddus.com, www.iddus.com"},{"name":" The Rock Crux Bistro","address":"Mühldorf 271\n ","postcode":"9814","city":"Mühldorf","countrycode":"  A","latitude":"46.855543","longitude":"13.353302","details":"Tel. +43.676.3400256, franz@therock.co.at, www.therock.at/information/the-rock-bistro"},{"name":" Thermenhof - Tagesbar/Café","address":"Kumpfallee 93\n ","postcode":"9504","city":"Villach-Warmbad","countrycode":"  A","latitude":"46.587815","longitude":"13.830295","details":"Tel. +43.4242.3001.4099, thermenhof@warmbad.at, www.med-warmbad.at/Thermenhof/Hinweise.html"},{"name":" Gasthof Pension Johannesmesner","address":"Johannesberg 2\n ","postcode":"9470","city":"St. Paul im Lavanttal","countrycode":"  A","latitude":"46.693265","longitude":"14.880278","details":"Produkte vom eigenen Bauernhof, Tel. +43.4357.2300, office@johannesmesner.at, www.johannesmesner.at"},{"name":" Café Park Haus","address":"St. Veiter Ring 10\n ","postcode":"9020","city":"Klagenfurt","countrycode":"  A","latitude":"46.627852","longitude":"14.306430","details":"Tel. +43.660.5259725, info@park-haus.at, www.park-haus.at"},{"name":" Café Castellino","address":"Schülerweg 90\n ","postcode":"9020","city":"Klagenfurt-Hörtendorf","countrycode":"  A","latitude":"46.632508","longitude":"14.397357","details":"auch Speisen, Tel. +43.676.4089300, ppetschar@gmx.at, www.vaz-castellino.at/cafe"},{"name":" Ebners Backstube","address":"Lendorf 259\n ","postcode":"9811","city":"Lendorf","countrycode":"  A","latitude":"46.831506","longitude":"13.420202","details":"Tel. +43.4769.33272, office@adeg-ebner.at, www.adeg-ebner.at/steinofen-baeckerei.php"},{"name":" Bäckerei Café Weissensteiner","address":"Villacher Straße 267\n ","postcode":"9710","city":"Feistritz/Drau","countrycode":"  A","latitude":"46.700465","longitude":"13.665790","details":"Tel. +43.4245.64064, baeckerei@weissensteiner.at, www.weissensteiner.at"},{"name":" Bäckerei Café Weissensteiner","address":"Villacher Straße 92\n ","postcode":"9800","city":"Spittal/Drau","countrycode":"  A","latitude":"46.789387","longitude":"13.516305","details":"Backodrom - Drive-In Bäckerei, Tel. +43.4762.42290, baeckerei@weissensteiner.at, www.weissensteiner.at"},{"name":" OEAV Kürsinger Hütte","address":"Obersulzbach\n ","postcode":"5741","city":"Neukirchen am Großvenediger","countrycode":"  A","latitude":"47.122760","longitude":"12.299905","details":"Tel. +43.6565.6450, info@kuersinger.at, www.kuersinger.at"},{"name":" Postalm","address":"Obersulzbach 66\n ","postcode":"5741","city":"Neukirchen am Großvenediger","countrycode":"  A","latitude":"47.150530","longitude":"12.273799","details":"bodenständige Gerichte aus der Nationalparkregion, Tel. +43.664.1116520, info@postalm-energie.at, www.postalm-energie.at"},{"name":" Lienbachhof","address":"Seydegg 75\n ","postcode":"5441","city":"Abtenau","countrycode":"  A","latitude":"47.649532","longitude":"13.431097","details":"gutbürgerliche Küche mit Salzburger Spezialitäten, Tel. +43.6137.6061, postalm.lienbachhof@aon.at, www.lienbachhof.at"},{"name":" Markt Cafe","address":"Warmbader Straße 34, Müllnern\n ","postcode":"9585","city":"Finkenstein-Gödersdorf","countrycode":"  A","latitude":"46.570061","longitude":"13.852520","details":"Restaurant/Café/Feinkostladen (hausgemachte Nudelvariationen), Tel. +43.4257.22116, ulrikefleissner@pastagregori.at, www.pastagregori.at"},{"name":" TGI Fridays","address":"Schubertring 13\n ","postcode":"1010","city":"Wien","countrycode":"  A","latitude":"48.201444","longitude":"16.374978","details":"Steakhaus, amerikanisch, 11:00-24:00, Tel. +43.1.7148995, tgifridays.at"},{"name":" Burgring 1","address":"Burgring 1\n ","postcode":"1010","city":"Wien","countrycode":"  A","latitude":"48.203375","longitude":"16.363863","details":"www.burgring.at"},{"name":" Schupfer's Alte Dorfschmiede","address":"Bad Mitterndorf 56 \n\t","postcode":"8983","city":"Bad Mitterndorf 56","countrycode":"  A","latitude":"47.555456","longitude":"13.929972","details":"traditionell Bewährtes mit neuen Geschmacksrichtungen (1 Haube!), Tel. +43.3623.29717, rolthecook@gmx.at, www.schupfers-dorfschmiede.at"},{"name":" Hollhaus","address":"Tauplitz-Alm 1\n ","postcode":"8982","city":"Tauplitz","countrycode":"  A","latitude":"47.594428","longitude":"13.985595","details":"Steirische Spezialitäten, Tel. +43.3688.2302, info@hollhaus.at, www.hollhaus.at"},{"name":" Restaurant Café Zirbitz (Gesundheits Therme Wildbad)","address":"Wildbad Einöd 8\n ","postcode":"9323","city":"Dürnstein in der Steiermark","countrycode":"  A","latitude":"47.022093","longitude":"14.413182","details":"Hotel-Restaurant-Café, Tel. +43.4268.2822, gesundheitstherme@wildbad.at, www.wildbad.at"},{"name":" Bäckerei-Café-Konditorei Schieder","address":"Mozartstraße 50\n ","postcode":"9020","city":"Klagenfurt","countrycode":"  A","latitude":"46.615344","longitude":"14.277698","details":"Tel. +43.463.230477, office@schieder.at, www.schieder.at"},{"name":" Bäckerei Café Taumberger","address":"Mießtaler Straße 42\n ","postcode":"9020","city":"Klagenfurt","countrycode":"  A","latitude":"46.621442","longitude":"14.319884","details":"Tel. +43.463.513471, office@taumberger.co.at, www.taumberger.co.at"},{"name":" Bäckerei-Café-Konditorei Srebre","address":"Griffner Straße 16a\n ","postcode":"9100","city":"Völkermarkt","countrycode":"  A","latitude":"46.662720","longitude":"14.637351","details":"Tel. +43.4232.237027"},{"name":" Gasthaus Wildensteiner Wasserfall","address":"Wildenstein 54\n ","postcode":"9132","city":"Gallizien","countrycode":"  A","latitude":"46.538724","longitude":"14.509527","details":"kleine Imbisse und Süßspeisen, Tel. +43.664.1042249"},{"name":" OEAV Südwiener Hütte","address":"Gnadenalmstraße 40\n ","postcode":"5561","city":"Untertauern","countrycode":"  A","latitude":"47.246100","longitude":"13.465890","details":"Hausmannskost, Tel. +43.664.3436342, suedwienerhuette.gebirgsverein.at"},{"name":" Tutti Frutti Eissalon","address":"Burggasse 23\n ","postcode":"9020","city":"Klagenfurt","countrycode":"  A","latitude":"46.624397","longitude":"14.311269","details":"Tel. +43.650.3430045, tuttifruttigelati@gmail.com, www.tuttifruttigelati.eu"},{"name":" Bäckerei Café Taumberger","address":"Fleischmarkt 7\n ","postcode":"9020","city":"Klagenfurt","countrycode":"  A","latitude":"46.624905","longitude":"14.310019","details":"Tel. +43.463.513471, office@taumberger.co.at, www.taumberger.co.at"},{"name":" Bäckerei Café Taumberger","address":"Paracelsusgasse 14-16\n ","postcode":"9020","city":"Klagenfurt","countrycode":"  A","latitude":"46.638969","longitude":"14.297815","details":"Tel. +43.463.513471, office@taumberger.co.at, www.taumberger.co.at"},{"name":" Bäckerei Café Taumberger","address":"St. Ruprechter Straße 51\n ","postcode":"9020","city":"Klagenfurt","countrycode":"  A","latitude":"46.610701","longitude":"14.309847","details":"Tel. +43.463.513471, office@taumberger.co.at, www.taumberger.co.at"},{"name":" Gipfelrestaurant Adlerhorst","address":"Katschberg-Aineck\n ","postcode":"9863","city":"Rennweg","countrycode":"  A","latitude":"47.055062","longitude":"13.637021","details":"Kärntner und Lungauer Spezialitäten, Tel. +43.4734.284, info@adlerhorst-katschberg.at, www.adlerhorst-katschberg.at"},{"name":" Stopplziaga","address":"Wolfsegger Straße 26\n ","postcode":"4800","city":"Attnang-Puchheim","countrycode":"  A","latitude":"48.020513","longitude":"13.715068","details":"www.stopplziaga.at"},{"name":" Izakaya","address":"Klammstraße 6\n ","postcode":"4020","city":"Linz","countrycode":"  A","latitude":"48.303022","longitude":"14.284001","details":"Japanisch, Asiatisch, Tel. +43.732.716817, www.izakaya.eu"},{"name":" Bäckerei-Café Andrea (Bäckerei Café Nadrag)","address":"Maria-Platzer-Straße 2\n ","postcode":"9020","city":"Klagenfurt","countrycode":"  A","latitude":"46.613527","longitude":"14.283374","details":"Bio-Backwaren, Tel. +43.463.218333, www.nadragbrot.at"},{"name":" Bäckerei-Café Loibnegger","address":"Zapfendorfer Straße 5\n ","postcode":"9131","city":"Grafenstein","countrycode":"  A","latitude":"46.610505","longitude":"14.469026","details":"Tel. +43.4225.2273, edmund.bellina@aon.at"},{"name":" Cafe-Bar Panorama / Restaurant Kofelalm","address":"Sonnenalpe Nassfeld 8\n ","postcode":"9620","city":"Hermagor","countrycode":"  A","latitude":"46.561294","longitude":"13.252633","details":"Tel. +43.660.5079699"},{"name":" DAV (Neue) Bonner Hütte","address":"Frankenberg 18\n ","postcode":"9863","city":"Rennweg","countrycode":"  A","latitude":"47.037206","longitude":"13.679866","details":"Kärntner und Salzburger Spezialitäten, Tel. +43.664.1624528, info@bonner-huette.at, www.bonner-huette.at"},{"name":" Gipfelhaus Gerlitzen","address":"Sauerwald\n ","postcode":"9543","city":"Arriach","countrycode":"  A","latitude":"46.695116","longitude":"13.914055","details":"Kärntner Spezialitäten, Tel. +43.4248.2881, gipfelhaus@gerlitzen.at, www.gerlitzen.at"},{"name":" Alpengasthaus Dominikushütte","address":"Dornauberg 104\n ","postcode":"6295","city":"Finkenberg-Ginzling","countrycode":"  A","latitude":"47.039838","longitude":"11.702220","details":"Tiroler Spezialitäten, Tel. +43.664.73296939, info@dominikushuette.at, www.dominikushuette.at"},{"name":" DAV Friesenberghaus","address":"Dornauberg 101\n ","postcode":"6295","city":"Finkenberg-Ginzling","countrycode":"  A","latitude":"47.067695","longitude":"11.702113","details":"Tel. +43.676.7497550, friesenberghaus@gmx.at, www.friesenberghaus.com"},{"name":" Cafe-Konditorei Alpenland","address":"\n ","postcode":"6295","city":"Mayrhofen-Ginzling 246","countrycode":"  A","latitude":"47.100132","longitude":"11.808629","details":"Tel. +43.5286.5209, cafe.alpenland@aon.at, www.tinyurl.com/cafe-alpenland"},{"name":" Café-Backhaus W. Wultsch (Bäckerei Puntschart)","address":"Völkermarkter Straße 96\n ","postcode":"9020","city":"Klagenfurt","countrycode":"  A","latitude":"46.624920","longitude":"14.330924","details":"Tel. +43.463.32631, puntschart@aon.at"},{"name":" Altkaseralm","address":"Alm 49\n ","postcode":"6343","city":"Erl","countrycode":"  A","latitude":"47.705112","longitude":"12.243447","details":"Tel. +43.676.843264465, www.altkaseralm.at"},{"name":" M+M Bar","address":"Innstraße 45\n ","postcode":"6020","city":"Innsbruck","countrycode":"  A","latitude":"47.270812","longitude":"11.391566","details":"Cocktailbar, www.facebook.com/MMCocktailbar, www.mm-bar.at"},{"name":" Ristorante da Salvatore","address":"Rohrbacherstraße 31\n ","postcode":"1130","city":"Wien","countrycode":"  A","latitude":"48.190378","longitude":"16.270786","details":"mediterrane Küche, Di-Sa 11:30-14:30, 18-23, So+Mo zu, Tel. +43.664.1400894"},{"name":" Duxer Alm","address":"Stadtberg 6\n ","postcode":"6330","city":"Kufstein","countrycode":"  A","latitude":"47.582937","longitude":"12.200306","details":"regionale Köstlichkeiten, Tel. +43.5372.63812, duxeralm@gmail.com, www.duxer-alm.at "},{"name":" Weinbergerhaus","address":"Stadtberg 8\n ","postcode":"6330","city":"Kufstein","countrycode":"  A","latitude":"47.577748","longitude":"12.209554","details":"traditionelle Hausmannskost, Tel. +43.5372.65148, mail@weinbergerhaus.at, www.weinbergerhaus.at"},{"name":" Brentenjochalm","address":"Stadtberg\n ","postcode":"6330","city":"Kufstein","countrycode":"  A","latitude":"47.577640","longitude":"12.213642","details":"Tiroler Spezialitäten"},{"name":" Berghaus Aschenbrenner","address":"Stadtberg 14\n ","postcode":"6330","city":"Kufstein","countrycode":"  A","latitude":"47.574347","longitude":"12.196304","details":"Tel. +43.5372.62220, info@berghaus-aschenbrenner.com, www.berghaus-aschenbrenner.com "},{"name":" Jausenstation Kalaalm","address":"Schneeberg 50a\n ","postcode":"6335","city":"Thiersee","countrycode":"  A","latitude":"47.567057","longitude":"12.091344","details":"Tiroler Spezialitäten, Tel. +43.664.3944284, info@kala-alm.at, www.kala-alm.at"},{"name":" Stern Gasthaus Christian Werner","address":"Braunhubergasse 6\n ","postcode":"1110","city":"Wien","countrycode":"  A","latitude":"48.171318","longitude":"16.417544","details":"www.gasthausstern.at"},{"name":" Winklers Zum Posthorn","address":"Posthorngasse 6\n ","postcode":"1030","city":"Wien","countrycode":"  A","latitude":"48.199961","longitude":"16.386542","details":"www.winklers-zumposthorn.at"},{"name":" Sektcomptoir Wien Szigeti","address":"Schleifmühlgasse 19\n ","postcode":"1040","city":"Wien","countrycode":"  A","latitude":"48.197809","longitude":"16.364529","details":"www.sektcomptoir.at"},{"name":" Eisdiele San Marco","address":"Oberer Stadtplatz 11\n ","postcode":"6330","city":"Kufstein","countrycode":"  A","latitude":"47.582098","longitude":"12.170577","details":"www.tinyurl.com/eisdielesanmarco"},{"name":" Cafe Pension Seerose","address":"Vorderthiersee 25\n ","postcode":"6335","city":"Thiersee","countrycode":"  A","latitude":"47.593958","longitude":"12.120269","details":"Tel. +43.5376.5237, www.seerose-thiersee.at, office@seerose-thiersee.at"},{"name":" Hotel-Restaurant Mariasteinerhof","address":"\n ","postcode":"6324","city":"Mariastein 14","countrycode":"  A","latitude":"47.525605","longitude":"12.054040","details":"Tel. +43.5332.56717, Tiroler Spezialitäten, vegetarisch, Schonkost, www.mariasteinerhof.at, hotel@mariasteinerhof.at"},{"name":" OEAV Bertahütte","address":"\n ","postcode":"9581","city":"Finkenstein-Ledenitzen","countrycode":"  A","latitude":"46.518211","longitude":"13.960549","details":"regionale Spezialitäten, tw. bio, Tel. +43.676.4211377, www.bertahuette.at"},{"name":" Il Sestante","address":"Piaristengasse 5\n ","postcode":"1080","city":"Wien","countrycode":"  A","latitude":"48.206933","longitude":"16.351012","details":"Pizzeria - original italienisch, www.sestante.at"},{"name":" Café-Restaurant Seeterrasse","address":"Berthastraße 38 (Schiffsanlegestelle)\n ","postcode":"9201","city":"Krumpendorf","countrycode":"  A","latitude":"46.622400","longitude":"14.221243","details":"mediterrane Küche, Eisspezialitäten, Tel. +43.4229.3046, www.krumpendorferhof.co.at"},{"name":" Bäckerei-Café Hagmann","address":"Dorfstraße 31\n ","postcode":"6353","city":"Going am Wilden Kaiser","countrycode":"  A","latitude":"47.514780","longitude":"12.330887","details":"Tel. +43.5358.2445, www.goingback.at, info@goingback.at"},{"name":" Udos Eisparadies","address":"Unterer Stadtplatz 6\n ","postcode":"6330","city":"Kufstein","countrycode":"  A","latitude":"47.582785","longitude":"12.168881","details":"Tel. +43.5372.62216, udoseisparadies.tumblr.com, udo.plesner@kufnet.at"},{"name":" OEAV Klagenfurter Hütte","address":"Bärental\n ","postcode":"9181","city":"Feistritz im Rosental","countrycode":"  A","latitude":"46.446787","longitude":"14.182748","details":"Tel. +43.664.8660608, www.klagenfurterhuette.at, klagenfurterhuette@gmail.com"},{"name":" Bäckerei-Café Jury","address":"Hauptplatz 23\n ","postcode":"9853","city":"Gmünd in Kärnten","countrycode":"  A","latitude":"46.907275","longitude":"13.535735","details":"Tel. +43.4732.2221"},{"name":" Familienhotel-Restaurant-Bar Platzer","address":"Untere Vorstadt 26\n ","postcode":"9853","city":"Gmünd in Kärnten","countrycode":"  A","latitude":"46.906323","longitude":"13.532956","details":"Hausmannskost, vegetarisch, italienisch, Grill, Fisch, Tel. +43.4732.2745, www.hotel-platzer.at"},{"name":" DAV Gießener Hütte","address":"Göß 1\n ","postcode":"9854","city":"Malta","countrycode":"  A","latitude":"46.992474","longitude":"13.328776","details":"Ortstypische Speisen, Tel. +43.676.9439142, www.giessener-huette.at"},{"name":" Lanna Thai Imbiss & Shop","address":"Hornweg 8\n ","postcode":"6370","city":"Kitzbühel","countrycode":"  A","latitude":"47.449001","longitude":"12.392191","details":"Tel. +43.680.1205878, www.lanna.at, info@lanna.at"},{"name":" Café-Konditorei Fahrnberger","address":"Luegerstraße 4\n ","postcode":"9020","city":"Klagenfurt","countrycode":"  A","latitude":"46.619732","longitude":"14.283406","details":"Tel. +43.463.23704, www.fahrnberger.com, office@fahrnberger.com"},{"name":" Bäckerei-Café Färbinger","address":"Marktstraße 32\n ","postcode":"5661","city":"Rauris","countrycode":"  A","latitude":"47.229317","longitude":"12.994251","details":"Tel. +43.6543.5245"},{"name":" Dorfcafé","address":"Marktstraße 34\n ","postcode":"5661","city":"Rauris","countrycode":"  A","latitude":"47.229011","longitude":"12.994186","details":"Café-Restaurant, italienische Küche, Tel. +43.676.9546278"},{"name":" Hotel Alpina","address":"Marktstraße 4\n ","postcode":"5661","city":"Rauris","countrycode":"  A","latitude":"47.233309","longitude":"12.992781","details":"Tel. +43.6544.6562.0, www.hotel-alpina-rauris.at, info@hotel-alpina-rauris.at"},{"name":" Gasthaus Strutz","address":"Laaken 21\n ","postcode":"8554","city":"Soboth","countrycode":"  A","latitude":"46.654385","longitude":"15.091545","details":"regionale Köstlichkeiten aus eigener Landwirtschaft, Tel. +43.3460.248, www.roschitzhof.at/texte/gasthaus-strutz.html, maria.strutz@aon.at"},{"name":" Bäckerei-Café Hubert Auer","address":"Südbahnstraße 1 (im Hauptbahnhof)\n ","postcode":"8700","city":"Leoben","countrycode":"  A","latitude":"47.386757","longitude":"15.090150","details":"Tel. +43.5.9669.239, www.hubert-auer.at, office@hubert-auer.at"},{"name":" Restaurant Pirkdorfersee","address":" ","postcode":"9143","city":"Feistritz ob Bleiburg","countrycode":"  A","latitude":"46.557842","longitude":"14.751226","details":"Tel. +43.4230.321.2, www.pirkdorfersee.at"},{"name":" Buschenschenke Schmautzer","address":"Berg 16\n ","postcode":"9065","city":"Ebenthal in Kärnten","countrycode":"  A","latitude":"46.596176","longitude":"14.460561","details":"hausgemachte Spezialitäten, Tel. +43.664.1065315, tinyurl.com/schmautzer"},{"name":" Café-Bar \"das neue\"","address":"Vorderthiersee 71\n ","postcode":"6335","city":"Thiersee","countrycode":"  A","latitude":"47.593589","longitude":"12.117319","details":"hausgemachte Kuchen und Torten, Eis und Snacks, Tel. +43.5376.20029, www.das-neue.at"},{"name":" Bäckerei-Café Schellhorn","address":"Dorf 72\n ","postcode":"6334","city":"Schwoich","countrycode":"  A","latitude":"47.545488","longitude":"12.140214","details":"Tel. +43.5372.581012"},{"name":" Hotel Pointner","address":"Bichlach 41\n ","postcode":"6370","city":"Reith bei Kitzbühel","countrycode":"  A","latitude":"47.477652","longitude":"12.348225","details":"biologisch-vegetarisch-yogische Vollwertküche, Tel. +43.5356.65242, www.hotel-pointner.at"},{"name":" Straniger Alm","address":"\n ","postcode":"9634","city":"Kirchbach-Goderschach","countrycode":"  A","latitude":"46.595557","longitude":"13.134305","details":"Gailtaler Spezialitäten, Almsennerei, Tel. +43.664.4250760, www.tinyurl.com/straniger-alm, info@ferienhaus-sagmeister.at"},{"name":" Klein Kordin Alm","address":"\n ","postcode":"9634","city":"Kirchbach-Goderschach","countrycode":"  A","latitude":"46.593109","longitude":"13.156170","details":"Almsennerei (\"Gailtaler Almkäse\"), Tel. +43.664.2039259"},{"name":" Bäckerei Café Stocklauser","address":"Niederdorfer Straße 233\n ","postcode":"9020","city":"Klagenfurt-Niederdorf","countrycode":"  A","latitude":"46.627027","longitude":"14.408451","details":"Tel. +43.463.72190, office@stocklauser.at"},{"name":" Truppes Morle-Eissalon zur Steinernen Brücke","address":"Tarviser Straße 100\n ","postcode":"9020","city":"Klagenfurt","countrycode":"  A","latitude":"46.620565","longitude":"14.283331","details":"Tel. +43.463.23557, office@truppe.at"},{"name":" Cafe Konditorei Klaus","address":"Reither Gasse 5\n ","postcode":"6365","city":"Kirchberg in Tirol","countrycode":"  A","latitude":"47.447644","longitude":"12.316489","details":"Tel. +43.5357.35344, manuela.sammer@snw.at"},{"name":" Café in der Talstation","address":"Talstation des Schrägaufzugs zur Riegersburg\n ","postcode":"8333","city":"Riegersburg","countrycode":"  A","latitude":"47.006289","longitude":"15.933544","details":"Tel. +43.3153.8213, www.veste-riegersburg.at"},{"name":" JUFA Fürstenfeld","address":"Burgenlandstraße 15\n ","postcode":"8280","city":"Fürstenfeld","countrycode":"  A","latitude":"47.048560","longitude":"16.082782","details":"Bistro-Café/Gästehaus, Tel. +43.5.7083.250, www.jufa.at"},{"name":" Bäckerei-Konditorei Birchbauer","address":"Hauptplatz 13\n ","postcode":"8280","city":"Fürstenfeld","countrycode":"  A","latitude":"47.050453","longitude":"16.076366","details":"Tel. +43.3382.52251, www.baeckerei-birchbauer.at"},{"name":" JUFA Eisenerzer Ramsau","address":"Ramsau 1\n ","postcode":"8790","city":"Eisenerz","countrycode":"  A","latitude":"47.513693","longitude":"14.847249","details":"Bistro-Café/Gästehaus, Tel. +43.5.7083.340, www.jufa.at"},{"name":" JUFA Schloss Röthelstein","address":"Schlossstraße\n ","postcode":"8911","city":"Admont","countrycode":"  A","latitude":"47.565581","longitude":"14.453029","details":"Bistro-Café/Gästehaus, Tel. +43.5.7083.320, www.jufa.at"},{"name":" Fisherman Tom Restaurant","address":"Mahlerstraße 13\n ","postcode":"1010","city":"Wien","countrycode":"  A","latitude":"48.202464","longitude":"16.372990","details":"Fischrestaurant, Tel. +43.1.5128961, www.fisherman-tom.com"},{"name":" Eis Cafe Lisa","address":"Gemeindeplatz 4\n ","postcode":"9601","city":"Arnoldstein","countrycode":"  A","latitude":"46.549726","longitude":"13.709499","details":"hausgemachtes italienisches Eis, März-Oktober"},{"name":" Restaurant-Café Kleeblatt","address":"St. Veiter Ring 31\n ","postcode":"9020","city":"Klagenfurt","countrycode":"  A","latitude":"46.628139","longitude":"14.308437","details":"Vollwert, Bio, Trennkost, Tel. +43.463.502174"},{"name":" Bäckerei-Café Nadrag","address":"Bachweg 45\n ","postcode":"9201","city":"Krumpendorf","countrycode":"  A","latitude":"46.625421","longitude":"14.211308","details":"Bio-Backwaren, Tel. +43.4229.2466, www.nadragbrot.at"},{"name":" Café-Konditorei Brunner","address":"Oberer Stadtplatz 16\n ","postcode":"6330","city":"Kufstein","countrycode":"  A","latitude":"47.582055","longitude":"12.170314","details":"hauseigene Confiserie-Spezialitäten, Tel. +43.5372.64507, www.tirolconfiserie.at"},{"name":" Bäckerei-Café Marinitsch","address":"Feldkirchner Str. 14\n ","postcode":"9062","city":"Moosburg","countrycode":"  A","latitude":"46.659282","longitude":"14.171955","details":"Tel. +43.4272.83067, www.marinitsch.at"},{"name":" Alpengasthof Walder","address":"Amberg 4\n ","postcode":"9712","city":"Fresach","countrycode":"  A","latitude":"46.700325","longitude":"13.731488","details":"regionale Spezialitäten aus Erzeugnissen der eigenen Landwirtschaft, Tel. +43.4245.2718, www.alpengasthof-walder.at"},{"name":" Hotel-Restaurant Salzburger Hof","address":"Marktstraße 65\n ","postcode":"5661","city":"Rauris","countrycode":"  A","latitude":"47.225135","longitude":"12.994143","details":"Tel. +43.6544.20149, www.salzburgerhof-raurisertal.at"},{"name":" Eisenkappler Hütte","address":"Ebriach 145\n ","postcode":"9135","city":"Bad Eisenkappel","countrycode":"  A","latitude":"46.502025","longitude":"14.510793","details":"Kärntner Spezialitäten, Tel. +43.4238.8170, www.eisenkapplerhuette.at"},{"name":" IKEA-Restaurant","address":"Ikea Platz 1\n ","postcode":"9020","city":"Klagenfurt","countrycode":"  A","latitude":"46.639684","longitude":"14.369301","details":"Tel. +43.810.081081, www.ikea.at"},{"name":" Hotel-Restaurant Ulli","address":"Zürs 264\n ","postcode":"6763","city":"Zürs am Arlberg","countrycode":"  A","latitude":"47.171445","longitude":"10.163587","details":"Tel. +43.5583.2600.0, www.hotel-ulli.at"},{"name":" Bäckerei Café Stocklauser","address":"Hauptplatz 3\n ","postcode":"9330","city":"Althofen","countrycode":"  A","latitude":"46.871898","longitude":"14.469358","details":"Tel. +43.4262.4645, office@stocklauser.at"},{"name":" Vollwertbäckerei-Café Heidi Hauber","address":"Lausbichl 2\n ","postcode":"6330","city":"Kufstein","countrycode":"  A","latitude":"47.586512","longitude":"12.159955","details":"Tel. +43.5372.62168, www.vollwertbaeckerei-hauber.com"},{"name":" Vollwertbäckerei-Café Heidi Hauber","address":"Arkadenplatz 1\n ","postcode":"6330","city":"Kufstein","countrycode":"  A","latitude":"47.582214","longitude":"12.171875","details":"Tel. +43.676.844710.207, www.vollwertbaeckerei-hauber.com"},{"name":" Vollwertbäckerei-Café Heidi Hauber","address":"Südtirolerplatz 1\n ","postcode":"6330","city":"Kufstein","countrycode":"  A","latitude":"47.582930","longitude":"12.166226","details":"Tel. +43.676.844710.206, www.vollwertbaeckerei-hauber.com"},{"name":" Pizzeria Milano","address":"Villacher Straße 6\n ","postcode":"9300","city":"St. Veit/Glan","countrycode":"  A","latitude":"46.765397","longitude":"14.354528","details":"Tel. +43.4212.71664"},{"name":" Alpengasthof Bodenhaus","address":"Kolmstraße 6\n ","postcode":"5661","city":"Rauris","countrycode":"  A","latitude":"47.105478","longitude":"12.990646","details":"Traditionelle Gerichte aus dem Raurisertal, Tel. +43.6544.8111, www.bodenhaus.at"},{"name":" Restaurant Bombay","address":"Andreas-Hofer-Straße 9\n ","postcode":"6330","city":"Kufstein","countrycode":"  A","latitude":"47.584587","longitude":"12.174267","details":"Indisch, vegetarisch, vegan, Tel. +43.5372.68240, bombay-kufstein.at"},{"name":" Mittagstisch","address":"Lakeside B06\n ","postcode":"9020","city":"Klagenfurt","countrycode":"  A","latitude":"46.614577","longitude":"14.263354","details":"Tel. +43.463.228822.27, gesunde Küche, www.lakeside-scitec.com/en/lakeside-gastronomie"},{"name":" Il Castello","address":"Unterer Stadtplatz 5\n ","postcode":"6330","city":"Kufstein","countrycode":"  A","latitude":"47.583169","longitude":"12.168323","details":"Ristorante-Pizzeria, Tel. +43.5372.20613, ilcastello@kufnet.at"},{"name":" Gasthaus Bodenbauer (Podnar)","address":"Bodental 123\n ","postcode":"9163","city":"Ferlach-Unterbergen","countrycode":"  A","latitude":"46.468280","longitude":"14.214935","details":"einfache ländliche Küche, Tel. +43.4227.6328, bodenbauer.podnar@aon.at"},{"name":" Jausenstation Šmelc","address":"Zell-Oberwinkel (Beginn Hainschgraben)\n ","postcode":"9170","city":"Zell","countrycode":"  A","latitude":"46.470142","longitude":"14.335784","details":"einfache Gerichte"},{"name":" Pizzarella Plus","address":"Miegerer Straße 27b\n ","postcode":"9065","city":"Ebenthal in Kärnten","countrycode":"  A","latitude":"46.610668","longitude":"14.359238","details":"Pizza, Pasta, Schnitzel, Balkan-Spezialitäten, Tel. +43.463.318831, www.pizzarella-plus.at"},{"name":" Pizzeria-Ristorante Nabucco","address":"Hauptstraße 1\n ","postcode":"6365","city":"Kirchberg in Tirol","countrycode":"  A","latitude":"47.447042","longitude":"12.315405","details":"Tel. +43.5357.35099"},{"name":" Pizzeria Nautik","address":"Hauptstraße 168\n ","postcode":"9201","city":"Krumpendorf","countrycode":"  A","latitude":"46.627016","longitude":"14.209812","details":"Tel. +43.4229.2639"},{"name":" Autogrill","address":"Blintendorf 20, St. Veit-Industriepark\n ","postcode":"9300","city":"St. Veit/Glan","countrycode":"  A","latitude":"46.730852","longitude":"14.379161","details":"Schnellstraßen-Raststation, Tel. +43.4212.47405, www.autogrill.at"},{"name":" Hotel-Restaurant Ferienwelt Kristall","address":"Marktstraße 2\n ","postcode":"5661","city":"Rauris","countrycode":"  A","latitude":"47.233914","longitude":"12.992212","details":"Tel. +43.6544.7316, www.ferienwelt-kristall.at"},{"name":" Café-Konditorei Hutter","address":"Bacher Weg 1\n ","postcode":"9546","city":"Bad Kleinkirchheim","countrycode":"  A","latitude":"46.813149","longitude":"13.777965","details":"Wiener Kaffeehaus, Tel. +43.4240.454, www.konditorei-hutter.at"},{"name":" Café-Konditorei Hutter","address":"Alter Platz 11\n ","postcode":"9020","city":"Klagenfurt","countrycode":"  A","latitude":"46.625428","longitude":"14.309499","details":"Wiener Kaffeehaus, Tel. +43.463.507710, www.konditorei-hutter.at"},{"name":" Tonnerhütte","address":"Jakobsberg 2\n ","postcode":"8822","city":"Mühlen","countrycode":"  A","latitude":"47.051660","longitude":"14.530749","details":"\"Almkulinarium\" (regionale Produkte, tw. Bio), Tel. +43.3586.30077, www.tonnerhuette.at"},{"name":" Karatas","address":"Stadionstraße 5\n ","postcode":"2700","city":"Wiener Neustadt","countrycode":"  A","latitude":"47.824047","longitude":"16.253843","details":"Kebap, Pizza, Grill, Tel. +43.2622.83542"},{"name":" Marché Bistro Natschbach","address":"Autobahn-Raststation Natschbach, Lindgruberstraße 14\n ","postcode":"2620","city":"Natschbach-Loipersbach","countrycode":"  A","latitude":"47.706772","longitude":"16.102416","details":"Tel. +43.2635.69714, www.marche-restaurants.com"},{"name":" Gasthof-Buschenschenke \"Zum Florian\" vlg. Piskernig","address":"Ebriach 82\n ","postcode":"9135","city":"Bad Eisenkappel","countrycode":"  A","latitude":"46.487505","longitude":"14.578235","details":"Bio-Betrieb mit eigenem Schlachthof, Wildspezialitäten, www.zum-florian.at"},{"name":" Marché Wörthersee","address":"Autobahn-Raststation Wörthersee, Tibitsch 84\n ","postcode":"9212","city":"Techelsberg","countrycode":"  A","latitude":"46.629917","longitude":"14.094797","details":"Tel. +43.4272.43995, www.marche-restaurants.com"},{"name":" Luigi's Sportstüberl","address":"Rodarm 25\n ","postcode":"9942","city":"Obertilliach","countrycode":"  A","latitude":"46.709588","longitude":"12.592177","details":"traditionelle Küche, Tel. +43.676.9452654, luigi@lesachtalonline.at,"},{"name":" Bäckerei Hierländer","address":"Hauptstraße 157\n ","postcode":"9761","city":"Greifenburg","countrycode":"  A","latitude":"46.750241","longitude":"13.177821","details":"Bäckerei, Café-Konditorei, Tel. +43.4712.292"},{"name":" Rosstrattenstüberl","address":"Villacher Alpenstraße, Rosstrattenparkplatz P 11\n ","postcode":"9500","city":"Villach","countrycode":"  A","latitude":"46.593286","longitude":"13.710293","details":"Kärntner Spezialitäten, Tel. +43.676.5415003, rosstratte@gmail.com "},{"name":" cabalo","address":"Deutsch Goritz 16\n ","postcode":"8483","city":"Deutsch Goritz","countrycode":"  A","latitude":"46.752088","longitude":"15.829585","details":"cafe bar lounge, www.cabalo.at"},{"name":" Heuriger WURTH","address":"Sonnbergstraße 1\n ","postcode":"2380","city":"Perchtoldsdorf","countrycode":"  A","latitude":"48.122107","longitude":"16.259659","details":"www.weingut-wurth.at"},{"name":" Pizzeria \"Il Mare\"","address":"Zieglergasse 15\n ","postcode":"1070","city":"Wien","countrycode":"  A","latitude":"48.198953","longitude":"16.344942","details":"Italienisch, Mediterran, Pizza, Tel. +43.1.5237494"},{"name":" Delicious","address":"Gabelsbergerstraße 14\n ","postcode":"9020","city":"Klagenfurt","countrycode":"  A","latitude":"46.616767","longitude":"14.310296","details":"vegetarisch/vegan, Mo-Fr + So 11-14.30, Sa zu, www.deliciousfood.at,"},{"name":" Bäckerei-Café Enjoy","address":"Eggerstraße 11\n ","postcode":"9620","city":"Hermagor","countrycode":"  A","latitude":"46.625248","longitude":"13.374011","details":"Mo-Fr 6.30-19h, Sa -17h, So zu"},{"name":" Donatella","address":"Margaretenstraße 42\n ","postcode":"1040","city":"Wien","countrycode":"  A","latitude":"48.195477","longitude":"16.363486","details":"www.donatellafood.eu"},{"name":" Minante","address":"Wipplingerstraße 32\n ","postcode":"1010","city":"Wien","countrycode":"  A","latitude":"48.213724","longitude":"16.367293","details":"www.minante.at"},{"name":" Rochus Vinothek","address":"Rochusmarkt 16-17\n ","postcode":"1030","city":"Wien","countrycode":"  A","latitude":"48.202584","longitude":"16.391227","details":"www.facebook.com/pages/Vinothek-Rochus/113577612050879?v=info"},{"name":" Chens Cooking Wok & Grill Restaurant","address":"Stadionstraße 3, Top 1\n ","postcode":"2700","city":"Wiener Neustadt","countrycode":"  A","latitude":"47.823861","longitude":"16.254074","details":"www.chens-cooking.at"},{"name":" Bistro Café Laborie","address":"Viktor Kaplanstraße 2\n ","postcode":"2700","city":"Wiener Neustadt","countrycode":"  A","latitude":"47.83715&","longitude":"16.252028","details":"www.laborie.at"},{"name":" Bäckerei Wienerroither GmbH","address":"Bruno Kreisky Straße 25\n ","postcode":"9500","city":"Villach","countrycode":"  A","latitude":"46.603961","longitude":"13.859434","details":"Tel. +43.4242.32378, www.wienerroither.com"},{"name":" Orania Stüberl","address":"Bahnhofsplatz 2B\n ","postcode":"5640","city":"Bad Gastein","countrycode":"  A","latitude":"47.112212","longitude":"13.132697","details":"Hausmannskost, traditionelle einheimische Küche und Wildspezialitäten"},{"name":" Kaffee Hawelka","address":"Dorotheergasse 6\n ","postcode":"1010","city":"Wien","countrycode":"  A","latitude":"48.207853","longitude":"16.369665","details":"www.hawelka.at"},{"name":" Kaffee Markusplatz","address":"Tuchlauben 16\n ","postcode":"1010","city":"Wien","countrycode":"  A","latitude":"48.210608","longitude":"16.371323","details":"www.markusplatz.at"},{"name":" Alpengasthof Wolfgruber","address":"Koralpe-Rieding 11\n ","postcode":"9431","city":"St. Stefan im Lavanttal","countrycode":"  A","latitude":"46.817840","longitude":"14.914264","details":"Regionale BIO-Küche, glutenfreie Speisen, www.biohotel-wolfgruber.at"},{"name":" Schlagerwirt","address":"Oberwallsee 12\n ","postcode":"4101","city":"Feldkirchen a. d. Donau","countrycode":"  A","latitude":"48.376671","longitude":"14.051731","details":"Hausmannskost, Spezialitäten v. eig. Bauernhof (Most, Schnaps, Speck"},{"name":" Saphire","address":"Jägerstraße 35\n ","postcode":"1200","city":"Wien","countrycode":"  A","latitude":"48.230580","longitude":"16.370655","details":"Türkisch, Tel. +43.1.9681966"},{"name":" Cafe Vindobona","address":"Wallensteinplatz 6\n ","postcode":"1200","city":"Wien ","countrycode":"  A","latitude":"48.229445","longitude":"16.371572","details":"Tel. +43.1.51247.4252, www.cafevindobona.at"},{"name":" Oasia","address":"Hegelgasse 17\n ","postcode":"1010","city":"Wien","countrycode":"  A","latitude":"48.202581","longitude":"16.374448","details":"asiatische Köstlichkeiten, www.oasia-restaurant.at"},{"name":" Kyoto","address":"Walfischgasse 4\n ","postcode":"1010","city":"Wien","countrycode":"  A","latitude":"48.203382","longitude":"16.371127","details":"Japanisch, Koreanisch, Sushi-Bar"},{"name":" Bada Sushi","address":"Johannesgasse 3\n ","postcode":"1010","city":"Wien","countrycode":"  A","latitude":"48.205238","longitude":"16.371662","details":"Koreanischen, Japanischen, www.badasushi.at"},{"name":" Tina Salettl","address":"Wienerstraße 12\n ","postcode":"3002","city":"Purkersdorf","countrycode":"  A","latitude":"48.206906","longitude":"16.179277","details":"Cafe-Bar-Lounge, Tel. +43.2231.21145, agri@gmx.eu, www.nur2.eu"},{"name":" Taste of India","address":"Margaretenstraße 34\n ","postcode":"1040","city":"Wien","countrycode":"  A","latitude":"48.198305","longitude":"16.363964","details":"www.taste-of-india.at"},{"name":" Café Sperlhof","address":"Große Sperlgasse 41\n ","postcode":"1020","city":"Wien","countrycode":"  A","latitude":"48.219751","longitude":"16.378456","details":"Tel. +43.1.2145864, Pool, Gesellschaftsspiele, Tischtennis, Tischfußball"},{"name":" Santo Spirito","address":"Kumpfgasse 7\n ","postcode":"1010","city":"Wien","countrycode":"  A","latitude":"48.207218","longitude":"16.375916","details":"Bar, Cafe, Restaurant, Tel. +43.1.5129998, www.santospirito.at"},{"name":" Café-Restaurant Strandleben","address":"Hans Pruscha Weg 5 (Promenadenbad)\n ","postcode":"9210","city":"Pörtschach am Wörthersee","countrycode":"  A","latitude":"46.628692","longitude":"14.14361'","details":"Tel. +43.4272.2866, www.strandleben.at"},{"name":" OEAV Nebelsteinhütte","address":"Maissen 55\n ","postcode":"3971","city":"St. Martin im Waldviertel ","countrycode":"  A","latitude":"48.672845","longitude":"14.778674","details":"Tel. +43.2858.5293, +43.676.4041040, nebelsteinhuette@gmx.at"},{"name":" eatalico","address":"Praterstraße 31\n ","postcode":"1020","city":"Wien","countrycode":"  A","latitude":"48.214985","longitude":"16.384523","details":"Italienisch, Pizza, Tel. +43.1.2126273, Mo-Sa 11-24, So+Fei 12-24"},{"name":" Restaurant Indus","address":"Radetzkystraße 20\n ","postcode":"1030","city":"Wien","countrycode":"  A","latitude":"48.211826","longitude":"16.390865","details":"Indisch, www.restaurantindus.at"},{"name":" Eat","address":"Getreidemarkt 11\n ","postcode":"1060","city":"Wien","countrycode":"  A","latitude":"48.201756","longitude":"16.362628","details":"Asiatisch, Chinesisch, Indisch, Indonesisch, Thailändisch, Vietnamesisch"},{"name":" RAMA","address":"Innstraße 81\n ","postcode":"6020","city":"Innsbruck","countrycode":"  A","latitude":"47.272617","longitude":"11.393012","details":"Indisch, Tel. +43.512.285123"},{"name":" Billard-Café B14","address":"Bachlechnerstraße 46/1. Stock\n ","postcode":"6020","city":"Innsbruck","countrycode":"  A","latitude":"47.264542","longitude":"11.375518","details":"Tel. +43.512.908384"},{"name":" Fischer-Weber","address":"Palffygasse 9\n ","postcode":"2500","city":"Baden","countrycode":"  A","latitude":"48.006117","longitude":"16.242739","details":"Heuriger, Tel. +43.2252.52285"},{"name":" Haus der Begegnung","address":"Rennweg 12\n ","postcode":"6020","city":"Innsbruck","countrycode":"  A","latitude":"47.273726","longitude":"11.397510","details":"Restaurant und Cafeteria, Tel. +43.512.587869.13, www.hausderbegegnung.com"},{"name":" Sushi-Aspern","address":"Gross-Enzersdorferstraße 2\n ","postcode":"1220","city":"Wien","countrycode":"  A","latitude":"48.217043","longitude":"16.488133","details":"Japanische Spezialitäten, www.sushi-aspern.at"},{"name":" arco","address":"Marokkanergasse 3\n ","postcode":"1030","city":"Wien","countrycode":"  A","latitude":"48.199878","longitude":"16.379334","details":"Tel. +43.699.17138322, www.arco-wien.at"},{"name":" Ristorante Pizzeria Francesco","address":"Linzer Straße 415\n ","postcode":"1140","city":"Wien","countrycode":"  A","latitude":"48.201875","longitude":"16.256941","details":"Tel. +43.1.9146362, www.francesco-ristorante.at"},{"name":" Wein Botschaft","address":"Annagasse 12\n ","postcode":"1010","city":"Wien","countrycode":"  A","latitude":"48.204161","longitude":"16.372228","details":"Tel. +43.1.5128510, www.weinbotschaft.at"},{"name":" Italic","address":"Johannesgasse 2\n ","postcode":"1010","city":"Wien","countrycode":"  A","latitude":"48.205137","longitude":"16.371482","details":"Tel. +43.1.5124122, www.italicvienna.at"},{"name":" Wein & Co Linz PlusCity","address":"Plus-Kauf-Straße 7\n ","postcode":"4061","city":"Pasching","countrycode":"  A","latitude":"48.244385","longitude":"14.235700","details":"www.weinco.at, Tel. +43.5.0706.3011"},{"name":" Lohmann \"Alt Wien\"","address":"Bräunerstraße 8\n ","postcode":"1010","city":"Wien","countrycode":"  A","latitude":"48.207986","longitude":"16.368868","details":"Tel. +43.1.5323011, www.restaurant-lohmann.at"},{"name":" Île de France Frühstückscafé + Crêperie","address":"Karfreitstraße 14\n ","postcode":"9020","city":"Klagenfurt","countrycode":"  A","latitude":"46.622196","longitude":"14.308545","details":"Bistro, Kaffeehaus, Küche: Französisch, Tel. +43.463.992222, www.iledefrance.at"},{"name":" Bäckerei Wienerroither GmbH","address":"Hauptstraße 145\n ","postcode":"9210","city":"Pörtschach am Wörthersee","countrycode":"  A","latitude":"46.635020","longitude":"14.147702","details":"Tel. +43.4272.2261, www.wienerroither.com"},{"name":" Bäckerei Wienerroither GmbH","address":"8.-Mai-Straße 20\n ","postcode":"9020","city":"Klagenfurt","countrycode":"  A","latitude":"46.623046","longitude":"14.310392","details":"Tel. +43.463.500900, www.wienerroither.com"},{"name":" Bäckerei Wienerroither GmbH","address":"St. Veiter Straße 125\n ","postcode":"9020","city":"Klagenfurt","countrycode":"  A","latitude":"46.643489","longitude":"14.314809","details":"Tel. +43.463.420000, www.wienerroither.com"},{"name":" Bäckerei Wienerroither GmbH","address":"Walther von der Vogelweide-Platz 1 (Bahnhof Klagenfurt)\n ","postcode":"9020","city":"Klagenfurt","countrycode":"  A","latitude":"46.616047","longitude":"14.313537","details":"Tel. +43.463.512220, www.wienerroither.com"},{"name":" Bäckerei Wienerroither GmbH","address":"Siebenhügelstraße 39\n ","postcode":"9020","city":"Klagenfurt","countrycode":"  A","latitude":"46.612993","longitude":"14.287513","details":"Tel. +43.463.24175, www.wienerroither.com"},{"name":" Bäckerei Wienerroither GmbH","address":"Universitätsstraße 98\n ","postcode":"9020","city":"Klagenfurt","countrycode":"  A","latitude":"46.618038","longitude":"14.267776","details":"Tel. +43.463.204411, www.wienerroither.com"},{"name":" Bäckerei Wienerroither GmbH","address":"Waidmannsdorfer Straße 134\n ","postcode":"9020","city":"Klagenfurt","countrycode":"  A","latitude":"46.608914","longitude":"14.291048","details":"Tel. +43.463.220800, www.wienerroither.com"},{"name":" Bäckerei Wienerroither GmbH","address":"Wienergasse 7\n ","postcode":"9020","city":"Klagenfurt","countrycode":"  A","latitude":"46.625999","longitude":"14.308169","details":"Tel. +43.463.56636, www.wienerroither.com"},{"name":" Cafe Mazz","address":"Kaigasse 25\n ","postcode":"5020","city":"Salzburg","countrycode":"  A","latitude":"47.797359","longitude":"13.049240","details":"österreichische Küche, www.mazz-cafe.at"},{"name":" Hollmann Salon","address":"Grashofgasse 3\n ","postcode":"1010","city":"Wien","countrycode":"  A","latitude":"48.210206","longitude":"16.376362","details":"biologisch regional saisonal, www.hollmann-salon.at"},{"name":" Landia","address":"Ahornergasse 4\n ","postcode":"1070","city":"Wien","countrycode":"  A","latitude":"48.200405","longitude":"16.347531","details":"Restaurant, www.landia.at"},{"name":" Das LOKal","address":"Richtergasse 6\n ","postcode":"1070","city":"Wien","countrycode":"  A","latitude":"48.199370","longitude":"16.348468","details":"Café + alte Medien, www.daslokal.net"},{"name":" Der Linde","address":"Lindengasse 43\n ","postcode":"1070","city":"Wien","countrycode":"  A","latitude":"48.199747","longitude":"16.349007","details":"Gasthaus, www.derlinde.at"},{"name":" Mia Cucina","address":"Andreasgasse 4\n ","postcode":"1070","city":"Wien","countrycode":"  A","latitude":"48.198006","longitude":"16.347519","details":"italienisch, Tel. +43.1.5236479"},{"name":" Ristorante Sorriso","address":"Einwanggasse 27\n ","postcode":"1140","city":"Wien","countrycode":"  A","latitude":"48.191482","longitude":"16.301775","details":"italienisch, Tel. +43.1.8920845, www.sorriso.at"},{"name":" Hitomi","address":"Praterstraße 30\n ","postcode":"1020","city":"Wien","countrycode":"  A","latitude":"48.214367","longitude":"16.384187","details":"Sushi/Wok/Noodle, www.hitomi.at"},{"name":" Pan Asia","address":"Praterstraße 22\n ","postcode":"1020","city":"Wien","countrycode":"  A","latitude":"48.213659","longitude":"16.383258","details":"Chinesisch"},{"name":" 5 Senses","address":"Aspernbrückengasse 1 (im Novotel)\n ","postcode":"1020","city":"Wien","countrycode":"  A","latitude":"48.213274","longitude":"16.383159","details":"modern österreichisch/international, www.novotel.com/de/hotel-6154-novotel"},{"name":" Neni im Zweiten","address":"Praterstraße 1 (im Sofitel) \n ","postcode":"1020","city":"Wien","countrycode":"  A","latitude":"48.212712","longitude":"16.380170","details":"israelisch/orientalisch, neni.at/blogs/blog3.php"},{"name":" Motto am Fluss - Café","address":"Schwedenplatz 2, Franz Josefs Kai/Vorkai\n ","postcode":"1010","city":"Wien","countrycode":"  A","latitude":"48.212019","longitude":"16.378324","details":"Café, www.motto.at/mottoamfluss"},{"name":" Heuriger Simonides","address":"Wiener Straße 36\n ","postcode":"2120","city":"Wolkersdorf","countrycode":"  A","latitude":"48.381592","longitude":"16.512257","details":"Tel. +43.2245.5774"},{"name":" Buschenschank Weingut Wallner","address":"Kellergasse 17\n ","postcode":"2120","city":"Obersdorf","countrycode":"  A","latitude":"48.367246","longitude":"16.524701","details":"Tel. +43.2245.3477"},{"name":" Panorama Restaurant Haus an der Weinstraße","address":"Gumpoldskirchnerstraße 50\n ","postcode":"2340","city":"Mödling ","countrycode":"  A","latitude":"48.065432","longitude":"16.288734","details":"Tel. +43.2236.24541, www.panoramarestaurant.at"},{"name":" Phönixhof","address":"Neustiftgasse 55\n ","postcode":"1070","city":"Wien ","countrycode":"  A","latitude":"48.205216","longitude":"16.349923","details":"Café, Restaurant, Bar, www.phoenixhof.at"},{"name":" Restaurant Chianti","address":"Am Tabor 28\n ","postcode":"1020","city":"Wien ","countrycode":"  A","latitude":"48.223947","longitude":"16.388185","details":"Italienische Küche, www.restaurant-chianti.at"},{"name":" BUNT Das Eventrestaurant","address":"Hietzinger Hauptstraße 162\n ","postcode":"1130","city":"Wien","countrycode":"  A","latitude":"48.187902","longitude":"16.269003","details":"Tel. +43.1.8771499, www.restaurantbunt.at"},{"name":" Pizzeria Santa Maria Währing","address":"Gentzgasse 86-88\n ","postcode":"1180","city":"Wien","countrycode":"  A","latitude":"48.228225","longitude":"16.337991","details":"orig. ital. Restaurant+Pizzeria mit Zustellung, Tel. +43.1.4792436, www.santamaria1180.at"},{"name":" Ristorante Schuppich - Cucina Triestina","address":"Rotensterngasse 18\n ","postcode":"1020","city":"Wien","countrycode":"  A","latitude":"48.217412","longitude":"16.383400","details":"www.schuppich.at"},{"name":" Orther Stub'n","address":"Orth 1\n ","postcode":"4810","city":"Gmunden","countrycode":"  A","latitude":"47.911654","longitude":"13.792358","details":" Haube laut Gault Millau, www.schlossorth.com"},{"name":" Wiener Cafe","address":"Sparkassegasse 1\n ","postcode":"4810","city":"Gmunden","countrycode":"  A","latitude":"47.917784","longitude":"13.798930","details":"Cafe und Restaurant mit Seeblick, www.wienercafe.com"},{"name":" L'Osteria","address":"Promenade 22\n ","postcode":"4020","city":"Linz","countrycode":"  A","latitude":"48.304654","longitude":"14.286546","details":"Italienisches Restaurant mit Riesenpizzen, www.losteria.eu"},{"name":" Eissalon Valcak","address":"Simmeringer Hauptstraße 48\n ","postcode":"1110","city":"Wien","countrycode":"  A","latitude":"48.178916","longitude":"16.411049","details":"Tel. +43.1.7498866"},{"name":" Pizzeria Palermo","address":"Gaußplatz 1\n ","postcode":"1020","city":"Wien","countrycode":"  A","latitude":"48.225692","longitude":"16.370250","details":"Pizza, italienisch, Gastgarten, www.palermo-ristorante.net"},{"name":" Cafe Restaurant Landtmann","address":"Dr. Karl Luegerring 4\n ","postcode":"1010","city":"Wien","countrycode":"  A","latitude":"48.211346","longitude":"16.361555","details":"Tel. +43.1.24100.100, www.landtmann.at"},{"name":" Fu Long","address":"Landstraßer Hauptstraße 122\n ","postcode":"1030","city":"Wien","countrycode":"  A","latitude":"48.196357","longitude":"16.395801","details":"Asiatisch, Chinesisch, Japanisch, Thailändisch, Tel. +43.1.7103349"},{"name":" yamm!","address":"Dr. Karl Lueger Ring 10\n ","postcode":"1010","city":"Wien","countrycode":"  A","latitude":"48.212972","longitude":"16.361782","details":"Vegetarisch, www.yamm.at"},{"name":" Steirerhütte","address":"am Sonnenplatzerl 1\n ","postcode":"8983","city":"Bad Mitterndorf","countrycode":"  A","latitude":"47.555879","longitude":"13.919634","details":"hochwertige regionale Produkte, www.steirerhuette.at "},{"name":" la Cantina - intermezzo italiano","address":"Sparkassenplatz\n ","postcode":"6020","city":"Innsbruck","countrycode":"  A","latitude":"47.266100","longitude":"11.395252","details":"Bar & Enoteca italiana, www.intermezzoitaliano.com"},{"name":" Weingut Reiger","address":"Untere Kellergasse 1\n ","postcode":"7474","city":"Eisenberg an der Pinka","countrycode":"  A","latitude":"47.191720","longitude":"16.409737","details":"Heuriger, Gästezimmer, www.reiger.cc"},{"name":" Wasgaustube","address":"Pirmasenser Straße 30\n ","postcode":"6695","city":"Hochstellerhof","countrycode":"  D  ","latitude":"49.137169","longitude":"7.5760431","details":"Restaurant, Biergarten, www.wasgaustube.de"},{"name":" Palmenhaus","address":"Burggarten 1\n ","postcode":"1010","city":"Wien","countrycode":"  A","latitude":"48.204057","longitude":"16.365361","details":"www.palmenhaus.at"},{"name":" Eremitage","address":"Innsbrucker Straße 14\n ","postcode":"6130","city":"Schwaz","countrycode":"  A","latitude":"47.343962","longitude":"11.707694","details":"www.eremitage.com"},{"name":" Hotel-Restaurant-Bar Hollweger","address":"Mondsee Bundesstraße 2\n ","postcode":"5340","city":"St. Gilgen am Wolfgangsee","countrycode":"  A","latitude":"47.769522","longitude":"13.360402","details":"www.hollweger.at, Telefon: +43.6227.2226"},{"name":" Soya","address":"Mariahilfer Straße 81\n ","postcode":"1060","city":"Wien","countrycode":"  A","latitude":"48.197770","longitude":"16.349125","details":"Japanisch, 01/5860601, Mo-Sa 10:30-22"},{"name":" Dainadoo","address":"Entenplatz 1\n ","postcode":"8020","city":"Graz","countrycode":"  A","latitude":"47.067715","longitude":"15.434065","details":"Tamilische Küche und gute Musik, www.dainadoo.at"},{"name":" Alte Metzgerei","address":"Herrenstraße 5\n ","postcode":"4020","city":"Linz","countrycode":"  A","latitude":"48.303200","longitude":"14.285931","details":"Vinothek, österreichischen Spezialitäten, www.walchshofer.com"},{"name":" Tancredi","address":"Große Neugasse 5 / Eingang Rubensgasse 2\n ","postcode":"1040","city":"Wien","countrycode":"  A","latitude":"48.191564","longitude":"16.365864","details":"Restaurant, www.tancredi.at"},{"name":" Camelot","address":"Rechte Wienzeile 21\n ","postcode":"1040","city":"Wien","countrycode":"  A","latitude":"48.198025","longitude":"16.363310","details":"Ritteressen, www.camelot-restaurant.at"},{"name":" Zum kaiserlichen Thron","address":"Andreasgasse 7\n ","postcode":"1070","city":"Wien","countrycode":"  A","latitude":"48.198734","longitude":"16.347042","details":"China-Restaurant, www.ZumKaiserlichenThron.at"},{"name":" I Carusi","address":"Kirchengasse 21\n ","postcode":"1070","city":"Wien","countrycode":"  A","latitude":"48.201985","longitude":"16.351874","details":"Pizzeria - Trattoria, www.icarusi.at"},{"name":" Lale","address":"Franz Josefs Kai 29\n ","postcode":"1010","city":"Wien","countrycode":"  A","latitude":"48.212141","longitude":"16.374939","details":"Orientalisch, Tel. +43.1.5352736"},{"name":" Glacis Beisl","address":"Museumsquartier, Zugang Breitegasse 4\n ","postcode":"1070","city":"Wien","countrycode":"  A","latitude":"48.203212","longitude":"16.357107","details":"Wiener Beisl, Schanigarten, www.glacisbeisl.at"},{"name":" Einstein Cafe-Restaurant","address":"Altenberger Straße 70\n ","postcode":"4040","city":"Linz","countrycode":"  A","latitude":"48.333770","longitude":"14.319134","details":"Mediterrane Küche, Hausmannskost, www.einstein-trattoria.at"},{"name":" myKai","address":"Franz-Josefs-Kai 43\n ","postcode":"1010","city":"Wien","countrycode":"  A","latitude":"48.214836","longitude":"16.372719","details":"Kantonesische Küche mit indischen Einflüssen, www.mykai.at"},{"name":" Style","address":"Rudolfsplatz 3\n ","postcode":"1010","city":"Wien","countrycode":"  A","latitude":"48.214743","longitude":"16.372032","details":"Restaurant & Lounge, www.stylerestaurant.eu"},{"name":" Saladbox","address":"Färbergasse 10\n ","postcode":"1010","city":"Wien","countrycode":"  A","latitude":"48.212275","longitude":"16.369125","details":"Salate zum Selber-Zusammenstellen, www.saladbox.at"},{"name":" Heidingers Gasthaus","address":"Selzergasse 38\n ","postcode":"1150","city":"Wien","countrycode":"  A","latitude":"48.198219","longitude":"16.322982","details":"Wiener Küche, www.heidingers.at"},{"name":" Cafe Bar Lounge","address":"Pfarrgasse 13\n ","postcode":"4820","city":"Bad Ischl","countrycode":"  A","latitude":"47.711291","longitude":"13.622112","details":"Cafe-Bar, www.cafebarlounge.net"},{"name":" LATE Stein","address":"Donaulände 56\n ","postcode":"3504","city":"Krems/Stein","countrycode":"  A","latitude":"48.402090","longitude":"15.582893","details":"Brasserie, Bar und Restaurant, www.late.at"},{"name":" Maya","address":"Millennium City, Gebäude 2, 2.Stock\n ","postcode":"1220","city":"Wien","countrycode":"  A","latitude":"48.240310","longitude":"16.387023","details":"Mexican Food & Cocktails, www.maya-milleniumcity.at"},{"name":" Das Weltcafé","address":"Schwarzspanierstraße 15\n ","postcode":"1090","city":"Wien","countrycode":"  A","latitude":"48.216726","longitude":"16.357457","details":"100 % Fair Trade & Bio, www.weltcafe.at"},{"name":" Aiola ","address":"Schlossberg 2\n ","postcode":"8010","city":"Graz","countrycode":"  A","latitude":"47.074070","longitude":"15.437648","details":"Cafe-Bar, upstairs.aiola.at"},{"name":" Acapulco","address":"Berggasse 30\n ","postcode":"1090","city":"Wien","countrycode":"  A","latitude":"48.218898","longitude":"16.365475","details":"Mexikanisch und Peruanisch, www.acapulco.at "},{"name":" Piaty","address":"Unterer Stadtplatz 39\n ","postcode":"3340","city":"Waidhofen/Ybbs","countrycode":"  A","latitude":"47.96078&","longitude":"14.773169","details":"Kaffee-Konditorei und Bäckerei, Tel. +43.7442.53110, www.piaty.at"},{"name":" Nam Nam","address":"Webgasse 3\n ","postcode":"1060","city":"Wien","countrycode":"  A","latitude":"48.192421","longitude":"16.348145","details":"Indisches Restaurant, www.nam-nam.at"},{"name":" Hebenstreit","address":"Rockhgasse 1\n ","postcode":"1010","city":"Wien","countrycode":"  A","latitude":"48.213728","longitude":"16.365471","details":"Italienisch, Tel. +43.1.5337687"},{"name":" Pasta e Basta","address":"Werdertorgasse 10\n ","postcode":"1010","city":"Wien","countrycode":"  A","latitude":"48.21525&","longitude":"16.370783","details":"Pasta Spezialitäten, www.pastaebasta.at"},{"name":" Manzana","address":"Apfelgasse 1 (Ecke Paniglgasse)\n ","postcode":"1040","city":"Wien","countrycode":"  A","latitude":"48.197695","longitude":"16.369599","details":"Spanisch, Mittelmeerspezialitäten, www.manzana.at"},{"name":" Madiani","address":"Karmelitermarkt 21-24\n ","postcode":"1020","city":"Wien","countrycode":"  A","latitude":"48.217362","longitude":"16.377196","details":"Tel. +43.664.4561217, madiani.com"},{"name":" ¡más!","address":"Laudongasse 36\n ","postcode":"1080","city":"Wien","countrycode":"  A","latitude":"48.213194","longitude":"16.346754","details":"Spanisch, www.restaurante-mas.at"},{"name":" Al Borgo","address":"An der Hülben 1\n ","postcode":"1010","city":"Wien","countrycode":"  A","latitude":"48.206620","longitude":"16.377393","details":"Italienisch, www.borgo.at"},{"name":" Zur Alten Kaisermühle","address":"Alte Donau, Fischerstrand 21A\n ","postcode":"1220","city":"Wien","countrycode":"  A","latitude":"48.234939","longitude":"16.426766","details":"Restaurant seit 1893, www.kaisermuehle.at"},{"name":" La Fonda","address":"Preßgasse 30\n ","postcode":"1040","city":"Wien","countrycode":"  A","latitude":"48.197005","longitude":"16.362164","details":"Lateinamerikanisch, www.lafonda.at"},{"name":" Colombo Hoppers","address":"Schönbrunner Straße 84\n ","postcode":"1050","city":"Wien","countrycode":"  A","latitude":"48.189165","longitude":"16.350815","details":"Sri Lanka-Restaurant, www.colombohoppers.com"},{"name":" marchetti 11","address":"Marchettigasse 11\n ","postcode":"1060","city":"wien","countrycode":"  A","latitude":"48.192287","longitude":"16.349113","details":"Cafe Restaurant Bar, traditionelle österreichische Küche"},{"name":" Akakiko","address":"Shopping City Süd, Multiplex-Center\n ","postcode":"2331","city":"Vösendorf","countrycode":"  A","latitude":"48.104250","longitude":"16.318645","details":"Japanisch, Sushi, www.akakiko.at"},{"name":" Kurkonditorei Oberlaa","address":"Sieveringer Straße 4\n ","postcode":"1190","city":"Wien","countrycode":"  A","latitude":"48.246099","longitude":"16.341254","details":"Konditorei & Restaurant, www.oberlaa-wien.at"},{"name":" Kurkonditorei Oberlaa","address":"Dommayergasse 1\n ","postcode":"1130","city":"Wien","countrycode":"  A","latitude":"48.187115","longitude":"16.298868","details":"Alt-Wiener Kaffeehaus, www.oberlaa-wien.at"},{"name":" Kurkonditorei Oberlaa","address":"Kurbadstraße 12\n ","postcode":"1100","city":"Wien","countrycode":"  A","latitude":"48.142347","longitude":"16.403494","details":"Konditorei & Restaurant, www.oberlaa-wien.at"},{"name":" Kurkonditorei Oberlaa","address":"Josefstädter Straße 31\n ","postcode":"1080","city":"Wien","countrycode":"  A","latitude":"48.209393","longitude":"16.349406","details":"Konditorei, www.oberlaa-wien.at"},{"name":" Kurkonditorei Oberlaa","address":"Naschmarkt 175\n ","postcode":"1040","city":"Wien","countrycode":"  A","latitude":"48.198713","longitude":"16.363199","details":"Konditorei, www.oberlaa-wien.at"},{"name":" Kurkonditorei Oberlaa","address":"Landstraßer Hauptstraße 1\n ","postcode":"1030","city":"Wien","countrycode":"  A","latitude":"48.206568","longitude":"16.38346'","details":"Konditorei & Restaurant, www.oberlaa-wien.at"},{"name":" Kurkonditorei Oberlaa","address":"Babenbergerstraße 7\n ","postcode":"1010","city":"Wien","countrycode":"  A","latitude":"48.202627","longitude":"16.362399","details":"Konditorei & Restaurant, www.oberlaa-wien.at"},{"name":" Blaustern","address":"Döblinger Gürtel 2\n ","postcode":"1190","city":"Wien","countrycode":"  A","latitude":"48.231984","longitude":"16.354493","details":"Café, Mo-Fr 7h-1h, Sa,So 8h-1h, www.blaustern.at"},{"name":" Cafe mi.ro","address":"Wiedner Hauptstraße 44\n ","postcode":"1040","city":"Wien","countrycode":"  A","latitude":"48.193569","longitude":"16.366973","details":"Wiener Spezialitäten, Tel. +43.1.5857211"},{"name":" Café Amacord","address":"Rechte Wienzeile 15\n ","postcode":"1040","city":"Wien","countrycode":"  A","latitude":"48.198590","longitude":"16.364147","details":"Café-Restaurant, Tel. +43.1.5874709"},{"name":" Kutschker 44","address":"Kutschkergasse 44\n ","postcode":"1180","city":"Wien","countrycode":"  A","latitude":"48.226703","longitude":"16.344914","details":"Restaurant, Bar, Cafe, www.kutschker44.at"},{"name":" Knödl-Alm","address":"Knoppen 3\n ","postcode":"8984","city":"Pichl-Kainisch","countrycode":"  A","latitude":"47.570633","longitude":"13.866554","details":"Gasthaus, Brennerei, Bio-Bauernhof, www.urig.at"},{"name":" Rani","address":"Otto-Bauer-Gasse 21\n ","postcode":"1060","city":"Wien","countrycode":"  A","latitude":"48.196616","longitude":"16.348007","details":"Indisch, Tel. +43.1.5965111 "},{"name":" das möbel","address":"Burggasse 10\n ","postcode":"1070","city":"Wien","countrycode":"  A","latitude":"48.204295","longitude":"16.355049","details":"Café, Tel. +43.1.5249497, www.dasmoebel.at"},{"name":" Mythos","address":"Webgasse 45\n ","postcode":"1060","city":"Wien","countrycode":"  A","latitude":"48.196551","longitude":"16.344110","details":"Griechisch, Tel. +43.1.9690211"},{"name":" Café Nil","address":"Siebensterngasse 39\n ","postcode":"1070","city":"Wien","countrycode":"  A","latitude":"48.202073","longitude":"16.349888","details":"Arabische Küche, Frühstück bis 15:00, www.cafenil.at"},{"name":" Prielmayerhof","address":"Weißenwolffstraße 33\n ","postcode":"4020","city":"Linz","countrycode":"  A","latitude":"48.305548","longitude":"14.305369","details":"www.prielmayerhof.at"},{"name":" Café Sperl","address":"Gumpendorferstraße 11\n ","postcode":"1060","city":"Wien","countrycode":"  A","latitude":"48.199937","longitude":"16.361313","details":"Tel/Fax: +43.1.5864158, melange@cafesperl.at, www.cafesperl.at"},{"name":" Schlossberg 1a","address":"Schlossberg 1a\n ","postcode":"4020","city":"Linz","countrycode":"  A","latitude":"48.305216","longitude":"14.281304","details":"Cafe Restaurant, Tel. +43.732.302315, www.schlossberglinz.at"},{"name":" Lentos ","address":"Ernst-Koref-Promenade 1\n ","postcode":"4020","city":"Linz","countrycode":"  A","latitude":"48.308836","longitude":"14.289464","details":"Restaurant Cafe Bar, Tel. +43.732.784242, www.lentos-gastro.net"},{"name":" Asahii Asia Restaurant","address":"Freistädter Straße 21\n ","postcode":"4040","city":"Linz-Urfahr","countrycode":"  A","latitude":"48.316993","longitude":"14.282339","details":"Wok - Suhshi - Tepanyaki, Tel. +43.732.701372, asahiiasiarestaurantwoksushitepanyaki.gemeindeausstellung.at"},{"name":" p'aa delights","address":"Rathausgasse 5\n ","postcode":"4020","city":"Linz","countrycode":"  A","latitude":"48.306433","longitude":"14.287438","details":"Vegetarisch, Tel. +43.732.942195, www.paa.cx"},{"name":" p'aa restaurant & lounge","address":"Altstadt 28\n ","postcode":"4020","city":"Linz","countrycode":"  A","latitude":"48.304639","longitude":"14.284641","details":"Vegetarisch, Tel. +43.732.776461, www.paa.cx"},{"name":" Michl's","address":"Reichsratsstraße 11\n ","postcode":"1010","city":"Wien","countrycode":"  A","latitude":"48.212835","longitude":"16.358630","details":"Cafe Restaurant, www.michls.at"},{"name":" Donauturm","address":"Donauturmstraße 4\n ","postcode":"1220","city":"Wien","countrycode":"  A","latitude":"48.240232","longitude":"16.410090","details":"Restaurant, Cafe, www.donauturm.at"},{"name":" Coffeeshop Company Thalia","address":"Mariahilferstraße 99\n ","postcode":"1060","city":"Wien","countrycode":"  A","latitude":"48.196906","longitude":"16.346139","details":"Tel. +43.1.5954550"},{"name":" Duran","address":"Mariahilferstraße 91\n ","postcode":"1060","city":"Wien","countrycode":"  A","latitude":"48.197386","longitude":"16.347307","details":"www.duran.at"},{"name":" Mr. Lee","address":"Mariahilferstraße 91\n ","postcode":"1060","city":"Wien","countrycode":"  A","latitude":"48.197365","longitude":"16.347245","details":"Tel. +43.676.9352800"},{"name":" Trzwsniewski","address":"Mariahilferstraße 95\n ","postcode":"1060","city":"Wien","countrycode":"  A","latitude":"48.197194","longitude":"16.346618","details":"Brötchen, www.trzesniewski.at"},{"name":" Stella Marina","address":"Windmühlgasse 7\n ","postcode":"1060","city":"Wien","countrycode":"  A","latitude":"48.199684","longitude":"16.357515","details":"Pizza, Tel. +43.1.5873245"},{"name":" Wein & Co Wien Naschmarkt","address":"Getreidemarkt 1\n ","postcode":"1060","city":"Wien","countrycode":"  A","latitude":"48.200223","longitude":"16.365297","details":"www.weinco.at, Tel. +43.5.0706.3101"},{"name":" Wein & Co Wien Mariahilferstraße","address":"Mariahilferstraße 36\n ","postcode":"1070","city":"Wien","countrycode":"  A","latitude":"48.200016","longitude":"16.354387","details":"www.weinco.at, Tel. +43.5.0706.3022"},{"name":" Wein & Co Wien Donauzentrum","address":"Donauzentrum Top 708\n ","postcode":"1220","city":"Wien","countrycode":"  A","latitude":"48.242031","longitude":"16.437556","details":"www.weinco.at, Tel. +43.5.0706.3051"},{"name":" Wein & Co Salzburg Platzl","address":"Platzl 2\n ","postcode":"5020","city":"Salzburg","countrycode":"  A","latitude":"47.801824","longitude":"13.044977","details":"www.weinco.at, Tel. +43.5.0706.3151"},{"name":" Bamboo","address":"Kaiserstraße 48\n ","postcode":"1070","city":"Wien","countrycode":"  A","latitude":"48.201488","longitude":"16.340761","details":"Asiatisch, Tel. +43.1.5223032"},{"name":" Gerstner K&K Hofzuckerbäckerei","address":"Kärntner Straße 13-15\n ","postcode":"1010","city":"Wien","countrycode":"  A","latitude":"48.206803","longitude":"16.371747","details":"Cafe-Konditorei, www.gerstner.at"},{"name":" Aida","address":"Bognergasse 3\n ","postcode":"1010","city":"Wien","countrycode":"  A","latitude":"48.209868","longitude":"16.368505","details":"www.aida.at, Tel. +43.1.8908988.206"},{"name":" Aida","address":"Opernring 7\n ","postcode":"1010","city":"Wien","countrycode":"  A","latitude":"48.202504","longitude":"16.367482","details":"www.aida.at, Tel. +43.1.8908988.208"},{"name":" Aida","address":"Rotenturmstraße 24\n ","postcode":"1010","city":"Wien","countrycode":"  A","latitude":"48.211574","longitude":"16.376255","details":"www.aida.at, Tel. +43.1.8908988.207"},{"name":" Aida","address":"Singerstraße 1\n ","postcode":"1010","city":"Wien","countrycode":"  A","latitude":"48.207965","longitude":"16.372071","details":"www.aida.at, Tel. +43.1.8908988.210"},{"name":" Aida","address":"Wollzeile 28\n ","postcode":"1010","city":"Wien","countrycode":"  A","latitude":"48.207841","longitude":"16.377532","details":"www.aida.at, Tel. +43.1.8908988.205"},{"name":" Aida","address":"Praterstraße 78\n ","postcode":"1020","city":"Wien","countrycode":"  A","latitude":"48.217405","longitude":"16.390104","details":"www.aida.at, Tel. +43.1.8908988.216"},{"name":" Aida","address":"Landstraßer Hauptstraße 116\n ","postcode":"1030","city":"Wien","countrycode":"  A","latitude":"48.196953","longitude":"16.395476","details":"www.aida.at, Tel. +43.1.8908988.219"},{"name":" Aida","address":"Wiedner Hauptstraße 60\n ","postcode":"1040","city":"Wien","countrycode":"  A","latitude":"48.191022","longitude":"16.366487","details":"www.aida.at, Tel. +43.1.8908988.223"},{"name":" Aida","address":"Mariahilferstraße 101\n ","postcode":"1060","city":"Wien","countrycode":"  A","latitude":"48.196760","longitude":"16.345794","details":"www.aida.at, Tel. +43.1.8908988.203"},{"name":" Aida","address":"Kaiserstraße 37\n ","postcode":"1070","city":"Wien","countrycode":"  A","latitude":"48.200538","longitude":"16.340557","details":"www.aida.at, Tel. +43.1.8908988.214"},{"name":" Aida","address":"Neubaugasse 64\n ","postcode":"1070","city":"Wien","countrycode":"  A","latitude":"48.203359","longitude":"16.349099","details":"www.aida.at, Tel. +43.1.8908988.209"},{"name":" Aida","address":"Alserstraße 18\n ","postcode":"1090","city":"Wien","countrycode":"  A","latitude":"48.215259","longitude":"16.349017","details":"www.aida.at, Tel. +43.1.8908988.217"},{"name":" Aida","address":"Porzellangasse 60\n ","postcode":"1090","city":"Wien","countrycode":"  A","latitude":"48.225006","longitude":"16.362543","details":"www.aida.at, Tel. +43.1.8908988.215"},{"name":" Aida","address":"Währingerstraße 4 / Kolingasse 2\n ","postcode":"1090","city":"Wien","countrycode":"  A","latitude":"48.215547","longitude":"16.361265","details":"www.aida.at, Tel. +43.1.8908988.211"},{"name":" Aida","address":"Währingerstraße 47\n ","postcode":"1090","city":"Wien","countrycode":"  A","latitude":"48.222347","longitude":"16.352866","details":"www.aida.at, Tel. +43.1.8908988.213"},{"name":" Aida","address":"Favoritenstraße 88 / Columbusplatz\n ","postcode":"1100","city":"Wien","countrycode":"  A","latitude":"48.181677","longitude":"16.375041","details":"www.aida.at, Tel. +43.1.8908988.202"},{"name":" Aida","address":"Laxenburgerstraße 48 / Quellenplatz\n ","postcode":"1100","city":"Wien","countrycode":"  A","latitude":"48.176032","longitude":"16.373427","details":"www.aida.at, Tel. +43.1.8908988.222"},{"name":" Aida","address":"Simmeringer Hauptstraße 72 / Enkplatz\n ","postcode":"1110","city":"Wien","countrycode":"  A","latitude":"48.175963","longitude":"16.414621","details":"www.aida.at, Tel. +43.1.8908988.226"},{"name":" Aida","address":"Maxingstraße 1\n ","postcode":"1130","city":"Wien","countrycode":"  A","latitude":"48.185474","longitude":"16.301116","details":"www.aida.at, Tel. +43.1.8908988.204"},{"name":" Aida","address":"Thaliastraße 42\n ","postcode":"1160","city":"Wien","countrycode":"  A","latitude":"48.209692","longitude":"16.332238","details":"www.aida.at, Tel. +43.1.8908988.201"},{"name":" Aida","address":"Elterleinplatz 15\n ","postcode":"1170","city":"Wien","countrycode":"  A","latitude":"48.218232","longitude":"16.332862","details":"www.aida.at, Tel. +43.1.8908988.218"},{"name":" Aida","address":"Gersthoferstraße 2a\n ","postcode":"1180","city":"Wien","countrycode":"  A","latitude":"48.230817","longitude":"16.328903","details":"www.aida.at, Tel. +43.1.8908988.220"},{"name":" Aida","address":"Wallensteinstraße 18\n ","postcode":"1200","city":"Wien","countrycode":"  A","latitude":"48.228900","longitude":"16.369135","details":"www.aida.at, Tel. +43.1.8908988.212"},{"name":" Aida","address":"Floridsdorfer Hauptstraße 42\n ","postcode":"1210","city":"Wien","countrycode":"  A","latitude":"48.256572","longitude":"16.397052","details":"www.aida.at, Tel. +43.1.8908988.224"},{"name":" Aida","address":"Schönthalergasse 1\n ","postcode":"1210","city":"Wien","countrycode":"  A","latitude":"48.268133","longitude":"16.432348","details":"www.aida.at, Tel. +43.1.8908988.221"},{"name":" Aida","address":"Gewerbeparkstraße 1a\n ","postcode":"1220","city":"Wien","countrycode":"  A","latitude":"48.245944","longitude":"16.463552","details":"www.aida.at, Tel. Tel. +43.1.8901356"},{"name":" Aida","address":"Eurostraße 4\n ","postcode":"2301","city":"Gross-Enzersdorf","countrycode":"  A","latitude":"48.207266","longitude":"16.546202","details":"www.aida.at, Tel. +43.1.8908988.227"},{"name":" Aida","address":"Galerie 346\n ","postcode":"2334","city":"Vösendorf","countrycode":"  A","latitude":"48.113443","longitude":"16.318946","details":"www.aida.at, Tel. +43.1.8908988.225"},{"name":" Blue Orange","address":"Alserbachstraße 1\n ","postcode":"1090","city":"Wien","countrycode":"  A","latitude":"48.225327","longitude":"16.355276","details":"Bagles, Sandwitches, www.blueorange.co.at"},{"name":" Meinl am Graben","address":"Graben 19\n ","postcode":"1010","city":"Wien","countrycode":"  A","latitude":"48.209405","longitude":"16.36829'","details":"www.meinlamgraben.at"},{"name":" Immervoll","address":"Weihburggasse 17\n ","postcode":"1010","city":"Wien","countrycode":"  A","latitude":"48.206701","longitude":"16.373950","details":"Gasthaus, Tel. +43.1.5135288"},{"name":" Huth - Da Moritz","address":"Schellinggasse 5\n ","postcode":"1010","city":"Wien","countrycode":"  A","latitude":"48.204401","longitude":"16.375414","details":"www.zum-huth.at"},{"name":" Huth - Gastwirtschaft","address":"Schellinggasse 6\n ","postcode":"1010","city":"Wien","countrycode":"  A","latitude":"48.204544","longitude":"16.375194","details":"www.zum-huth.at"},{"name":" Weibel","address":"Kumpfgasse 2\n ","postcode":"1010","city":"Wien","countrycode":"  A","latitude":"48.207212","longitude":"16.375744","details":"Wiener Küche, www.weibel.at/wirtshaus01.html"},{"name":" Ristorante Enoteca Firenze","address":"Singerstraße 3\n ","postcode":"1010","city":"Wien","countrycode":"  A","latitude":"48.207897","longitude":"16.372391","details":"Italienisch, Tel. +43.1.5134374"},{"name":" Trattoria Santo Stefano","address":"Dorotheergasse 5\n ","postcode":"1010","city":"Wien","countrycode":"  A","latitude":"48.207716","longitude":"16.369888","details":"italienische Küche, Tel. +43.1.5121531.86"},{"name":" Rafati","address":"Neustiftgasse 82\n ","postcode":"1070","city":"Wien","countrycode":"  A","latitude":"48.205718","longitude":"16.344633","details":"Bar & Bistro, www.rafati.at"},{"name":" Kurkonditorei Oberlaa","address":"Neuer Markt 16\n ","postcode":"1010","city":"Wien","countrycode":"  A","latitude":"48.206685","longitude":"16.370707","details":"Konditorei & Restaurant, www.oberlaa-wien.at"},{"name":" Kenzi","address":"Herzog Otto Straße 8\n ","postcode":"6020","city":"Innsbruck","countrycode":"  A","latitude":"47.269268","longitude":"11.392718","details":"japanisch/koreanisch, www.kenzi.at"},{"name":" Da Pino","address":"Werdenbergerstraße 35\n ","postcode":"6700","city":"Bludenz","countrycode":"  A","latitude":"47.156340","longitude":"9.8190977","details":"Cafe-Ristorante, www.dapino.at"},{"name":" Da Pino","address":"Almteilweg 1 (Zimbapark)\n ","postcode":"6706","city":"Bürs","countrycode":"  A","latitude":"47.150957","longitude":"9.8121934","details":"Cafe-Ristorante, www.dapino.at"},{"name":" Angelo Bennati","address":"Kirchgasse 12\n ","postcode":"6700","city":"Bludenz","countrycode":"  A","latitude":"47.157262","longitude":"9.8194854","details":"italienisches Restaurant, Tel. +43.5552.34528"},{"name":" Bellaria","address":"Bellariastraße 6\n ","postcode":"1010","city":"Wien","countrycode":"  A","latitude":"48.206122","longitude":"16.359196","details":"Cafe Restaurant, www.cafebellaria.at"},{"name":" Cafe Himmelsreiter","address":"Pürgg 70\n ","postcode":"8953","city":"Trautenfels","countrycode":"  A","latitude":"47.533597","longitude":"14.066744","details":"Cafe/Bistro, Naturbad Pürgg, www.cabi.at"},{"name":" Kärntner Hamatle","address":"Linsengasse 1\n ","postcode":"9020","city":"Klagenfurt","countrycode":"  A","latitude":"46.623861","longitude":"14.302217","details":"bodenständige u. internationale Küche, www.kaerntnerhamatle.at"},{"name":" Maredo","address":"Opernring 3-5\n ","postcode":"1010","city":"Wien","countrycode":"  A","latitude":"48.202191","longitude":"16.368420","details":"südamerikanische Küche, Tel. +43.1.5867722, Mo-So 11:30-24:00"},{"name":" Etap City Point","address":"Operngasse 14\n ","postcode":"1010","city":"Wien","countrycode":"  A","latitude":"48.201779","longitude":"16.367306","details":"osmanisch-türkische Spezialitäten, www.etap-restaurant.at/de/City%20Point"},{"name":" KHIM","address":"Schneckgasse 12\n ","postcode":"3100","city":"St. Pölten","countrycode":"  A","latitude":"48.202302","longitude":"15.624517","details":"Köstlichkeiten der südostasiatischen Küche, Tel. +43.2742.73139, www.khim.at"},{"name":" OEAV Mörsbachhütte","address":"Donnersbachwald 35\n ","postcode":"8953","city":"Donnersbachwald","countrycode":"  A","latitude":"47.382122","longitude":"14.084730","details":"Tel. +43.676.4041040, moersbachhuette@gmx.at, www.tinyurl.com/2ws3yuk"},{"name":" Pizzeria Dobner","address":"Dobrovastraße 3\n ","postcode":"9500","city":"Villach/Maria Gail","countrycode":"  A","latitude":"46.594642","longitude":"13.882525","details":"www.pizzeria-dobner.at"},{"name":" La Cité - Gerstner bei Peek & Cloppenburg","address":"Mariahilferstraße 26-30\n ","postcode":"1070","city":"Wien","countrycode":"  A","latitude":"48.200511","longitude":"16.355516","details":"Tel. +43.1.8904531, www.gerstner.at/betriebe/la-cite-bei-p-c.html"},{"name":" Konditorei Cafe Braun","address":"Unterer Markt 8\n ","postcode":"5400","city":"Hallein","countrycode":"  A","latitude":"47.681971","longitude":"13.093885","details":"Tel. +43.6245.80486, rauchfrei seit 2007, www.confiserie-braun.at"},{"name":" Vintage Weinbar","address":"Johannesstraße 32\n ","postcode":"7082","city":"Donnerskirchen","countrycode":"  A","latitude":"47.897265","longitude":"16.643467","details":"Eigenbauweine, regionale Schmankerln, www.vintage-neumayer.at"},{"name":" Café-Konditorei Theresia","address":"Maria-Theresienstraße 48\n ","postcode":"6020","city":"Innsbruck","countrycode":"  A","latitude":"47.262763","longitude":"11.394758","details":""},{"name":" Da Gennaro","address":"Bräunerstraße 4-6\n ","postcode":"1010","city":"Wien","countrycode":"  A","latitude":"48.208136","longitude":"16.368997","details":"Pizzeria-Ristorante, Tel. +43.1.5350844, Mo-Sa 10-24, So 12-23"},{"name":" Li's cooking","address":"Naschmarkt Stand 126-129\n ","postcode":"1040","city":"Wien","countrycode":"  A","latitude":"48.199453","longitude":"16.364977","details":"ostasiatische Küche (Hongkong, Japan, Malaysia, Thailand), Mo-Sa 10:30-23:30, www.liscooking.at"},{"name":" am nordpol 3","address":"Nordwestbahnstraße 17\n ","postcode":"1020","city":"Wien","countrycode":"  A","latitude":"48.226742","longitude":"16.381806","details":"Tel. +43.1.3335854, www.amnordpol3.at"},{"name":" Schiller's Cafè-Bar","address":"Rainerstraße 2\n ","postcode":"4020","city":"Linz","countrycode":"  A","latitude":"48.297304","longitude":"14.290493","details":"Tel. +43.732.6950.114, schillerpark@austria-trend.at"},{"name":" Der Tortenmacher","address":"Nonntaler Hauptstraße 90\n ","postcode":"5020","city":"Salzburg","countrycode":"  A","latitude":"47.784414","longitude":"13.051855","details":"Cafe, Konditorei, Tel. +43.662.820960"},{"name":" The Heart of Joy Café","address":"Franz-Josef Straße 3\n ","postcode":"5020","city":"Salzburg","countrycode":"  A","latitude":"47.80719&","longitude":"13.042757","details":"Cafe, vegetarische Küche, WLAN, www.heartofjoy.at"},{"name":" Samandar","address":"Rappenwaldstraße 23a\n ","postcode":"6800","city":"Feldkirch","countrycode":"  A","latitude":"47.221674","longitude":"9.5801616","details":"Indische & orientalische Küche, Tel. +43.699.10099194"},{"name":" Nationalpark Thayatal","address":"Nationalparkhaus\n ","postcode":"2082","city":"Hardegg","countrycode":"  A","latitude":"48.845139","longitude":"15.860304","details":"Cafe-Restaurant, Tel. +43 2949 70050, www.np-thayatal.at | Cafe-Restaurant"},{"name":" Vegetasia","address":"Ungargasse 57\n ","postcode":"1030","city":"Wien","countrycode":"  A","latitude":"48.197874","longitude":"16.387505","details":"taiwanesisch-vegetarisch, Tel. +43.1.7138332, www.vegetasia.at"},{"name":" 220 Grad","address":"Chiemseegasse 5\n ","postcode":"5020","city":"Salzburg","countrycode":"  A","latitude":"47.797868","longitude":"13.049539","details":"Rösthaus und Café, Tel. +43.662.827881, www.220grad.com"},{"name":" Café Würfel Zucker","address":"Getreidegasse 36\n ","postcode":"5020","city":"Salzburg","countrycode":"  A","latitude":"47.800097","longitude":"13.041595","details":"Tel. +43.676.3007129, www.wuerfelzucker.at"},{"name":" JOHANNs essensmanufaktur","address":"Hugo von Montfortgasse 2\n ","postcode":"8600","city":"Bruck an der Mur","countrycode":"  A","latitude":"47.407936","longitude":"15.271199","details":"Restaurant Kochschule Genussladen, ausgezeichnet mit 2 Hauben, Tel. +43.664.2413129, www.johanns.at"},{"name":" Sabroson","address":"Linzergasse 27\n ","postcode":"5020","city":"Salzburg","countrycode":"  A","latitude":"47.803304","longitude":"13.046598","details":"Cafe Restaurant Pizzeria, Tel. +43662.872025, coffee@sabroson.at"},{"name":" Landgasthof Bogner","address":"Walburga-Schindl-Straße 21\n ","postcode":"6067","city":"Absam","countrycode":"  A","latitude":"47.294453","longitude":"11.500497","details":"Tel. +43.5223.57987, www.hotel-bogner.at"},{"name":" Vapiano","address":"Herrengasse 6-8\n ","postcode":"1010","city":"Wien","countrycode":"  A","latitude":"48.209397","longitude":"16.365531","details":"www.vapiano.at"},{"name":" die burgermacher","address":"Burggasse 12\n ","postcode":"1070","city":"Wien","countrycode":"  A","latitude":"48.204234","longitude":"16.354615","details":"www.dieburgermacher.at"},{"name":" Thali","address":"Vorgartenstraße 173\n ","postcode":"1020","city":"Wien","countrycode":"  A","latitude":"48.224582","longitude":"16.401293","details":"Indisch, SB, www.go-thali.at"},{"name":" Cimbalino","address":"Campus West, Dr. Karl Dorrek Straße 23\n ","postcode":"3500","city":"Krems","countrycode":"  A","latitude":"48.407416","longitude":"15.584922","details":"caffé-bar, www.cimbalino-bar.at"},{"name":" Mampf","address":"Missongasse 1\n ","postcode":"3507","city":"Krems","countrycode":"  A","latitude":"48.409077","longitude":"15.608796","details":"Cafe, Pizzeria, Tel. +43.2732.85675, www.mampf-krems.at"},{"name":" Gasthaus Jell","address":"Hoher Markt 8-9\n ","postcode":"3500","city":"Krems","countrycode":"  A","latitude":"48.412186","longitude":"15.602093","details":"Tel. +43.2732.82345, www.amon-jell.at"},{"name":" Zur Salza","address":"Salza 45\n ","postcode":"8954","city":"St. Martin/Grimming","countrycode":"  A","latitude":"47.490628","longitude":"13.959270","details":"Tel. +43.3684.30596, www.zur-salza.at"},{"name":" Midori","address":"Sackstraße 27\n ","postcode":"8010","city":"Graz","countrycode":"  A","latitude":"47.073805","longitude":"15.435402","details":"Running Sushi, Tel. +43.316.213882"},{"name":" Mittagspause","address":"Spitalgasse 25\n ","postcode":"1090","city":"Wien","countrycode":"  A","latitude":"48.220605","longitude":"16.352419","details":"www.mittagspause.org"},{"name":" Restaurant Post am See","address":"Bräuhof 94\n ","postcode":"8993","city":"Grundlsee","countrycode":"  A","latitude":"47.637646","longitude":"13.866298","details":"www.postamsee.com"},{"name":" Gasthof Hochalmspitze","address":"Malta 55 & 57\n ","postcode":"9854","city":"Malta","countrycode":"  A","latitude":"46.953652","longitude":"13.507953","details":"www.hochalmspitze.com, www.hochalmspitze.blogspot.com"},{"name":" Landtmann's Feine Patisserie","address":"Altmannsdorfer Straße 158 / Anton Baumgartnerstraße 40\n ","postcode":"1230","city":"Wien","countrycode":"  A","latitude":"48.151942","longitude":"16.318267","details":"feine Mehlspeisen direkt aus der Backstube, www.landtmann-patisserie.at"},{"name":" Weißgerber Stube im Sünnhof","address":"Landstraßer Hauptstraße 28\n ","postcode":"1030","city":"Wien","countrycode":"  A","latitude":"48.203814","longitude":"16.388595","details":"rustikales Beisl in der Biedermeierpassage mit Innenhofgarten, Tel. +43.1.71671.0, h5357@accor.com"},{"name":" Restaurant zum Inder","address":"Praterstraße 57\n ","postcode":"1020","city":"Wien","countrycode":"  A","latitude":"48.217175","longitude":"16.388545","details":"indische Spezialitäten"},{"name":" SB-Restaurant Thermalbad Oberlaa","address":"Kurbadstraße 14\n ","postcode":"1100","city":"Wien","countrycode":"  A","latitude":"48.143428","longitude":"16.401616","details":"im Innenbereich des Bades; mehrere Mittagsmenüs, Tagesteller, kalte Speisen"},{"name":" Bierplatzl der Konditorei Oberlaa","address":"Kurbadstraße 14\n ","postcode":"1100","city":"Wien","countrycode":"  A","latitude":"48.142372","longitude":"16.401960","details":"im Eingangsbereich des Kurbades; Snacks, warme Gerichte und Getränke"},{"name":" Restaurant Hafes","address":"Kaiserstraße 98\n ","postcode":"1070","city":"Wien","countrycode":"  A","latitude":"48.207175","longitude":"16.339631","details":"persische Küche, Tel. +43.1.5239936, www.hafes.at"},{"name":" UBI CHAT an der Universität Innsbruck","address":"Innrain 52f\n ","postcode":"6020","city":"Innsbruck","countrycode":"  A","latitude":"47.263757","longitude":"11.384115","details":"Tel. +43.512.507.2298, ubi-chat.innsbruck@mensen.at, ganztägig Frühstück"},{"name":" Café Publik im Festspielhaus","address":"Kulturbezirk 2\n ","postcode":"3100","city":"St. Pölten","countrycode":"  A","latitude":"48.199200","longitude":"15.633009","details":"Live-Konzerte, DJ-Lines, Diskussionsrunden, Poetry Slams, www.cafepublik.at"},{"name":" Lhotzkys Literaturbuffet","address":"Taborstraße 28\n ","postcode":"1020","city":"Wien","countrycode":"  A","latitude":"48.217688","longitude":"16.381032","details":"www.literaturbuffet.com, Mo-Fr 8-19, Sa 9-17"},{"name":" Oasia","address":"Schlickgasse 2\n ","postcode":"1090","city":"Wien","countrycode":"  A","latitude":"48.218345","longitude":"16.364838","details":"asiatische Köstlichkeiten, Tel. +43.1.3100170, www.oasia-restaurant.at"},{"name":" Cafe Konditorei Klement","address":"Hernalser Hauptstraße 161\n ","postcode":"1170","city":"Wien","countrycode":"  A","latitude":"48.222515","longitude":"16.317755","details":"Tel. +43.1.4865285, www.konditoreiklement.at"},{"name":" Kaffeehaus Bäckerei Schwarz","address":"Otto-Bondy-Platz 2 (Kabelwerk)\n ","postcode":"1120","city":"Wien","countrycode":"  A","latitude":"48.166070","longitude":"16.325833","details":" "},{"name":" Wellness Cafe","address":"Siebensterngasse 46\n ","postcode":"1070","city":"Wien","countrycode":"  A","latitude":"48.202257","longitude":"16.351020","details":""},{"name":" Weisshappel-Stüberl","address":"Goldschmiedgasse 9\n ","postcode":"1010","city":"Wien","countrycode":"  A","latitude":"48.209172","longitude":"16.370375","details":"Restaurant, Tel. +43.1.5339096"},{"name":" Buschenschank Hösl","address":"Badener Straße 69\n ","postcode":"2511","city":"Pfaffstätten","countrycode":"  A","latitude":"48.017320","longitude":"16.266295","details":"Tel. +43.2252.86657"},{"name":" Unkai","address":"Kärntner Ring 9\n ","postcode":"1010","city":"Wien","countrycode":"  A","latitude":"48.202102","longitude":"16.372186","details":"Japanisch, Sushi, www.unkai.at"},{"name":" Triangolo","address":"Alserstraße 39\n ","postcode":"1080","city":"Wien","countrycode":"  A","latitude":"48.215050","longitude":"16.347849","details":"Bar-Cafe, italienische und wiener Küche, Prosecco vom Fass, Tel. +43.1.9238090"},{"name":" The Dining Room","address":"Maygasse 31\n ","postcode":"1130","city":"Wien","countrycode":"  A","latitude":"48.163870","longitude":"16.284409","details":"www.theDiningRoom.at"},{"name":" Tart'a Tata","address":"Lindengasse 35\n ","postcode":"1070","city":"Wien","countrycode":"  A","latitude":"48.200095","longitude":"16.351048","details":"französische Patisserie, Tel. +43.1.5265626, Mo-Sa 8-24, So+Fei 9-24"},{"name":" Sluka","address":"Rathausplatz 8\n ","postcode":"1010","city":"Wien","countrycode":"  A","latitude":"48.209440","longitude":"16.357624","details":"Café, Konditorei, Bäckerei, Tel. +43.1.4068896, www.sluka.at"},{"name":" Saray","address":"Ottakringerstraße 30\n ","postcode":"1170","city":"Wien","countrycode":"  A","latitude":"48.214967","longitude":"16.337391","details":"Kebap und Pizzeria, Tel. +43.1.9240368"},{"name":" Rioja, Tapas y Mas","address":"Lazarettgasse 21\n ","postcode":"1090","city":"Wien","countrycode":"  A","latitude":"48.217274","longitude":"16.347988","details":"Spanisch, www.ymas.at"},{"name":" Restaurant Rhapsodie","address":"Am Heumarkt 35-37\n ","postcode":"1030","city":"Wien","countrycode":"  A","latitude":"48.199533","longitude":"16.377126","details":"Restaurant im Sofitel Vienna"},{"name":" Restaurant Anna Sacher","address":"Philharmoniker Straße 4\n ","postcode":"1010","city":"Wien","countrycode":"  A","latitude":"48.203893","longitude":"16.369559","details":"2-Hauben Restaurant \"Anna Sacher\" im Hotel Sacher"},{"name":" Natürlich Wrenkh","address":"Rauhensteingasse 12\n ","postcode":"1010","city":"Wien","countrycode":"  A","latitude":"48.205921","longitude":"16.372113","details":"vegetarisch"},{"name":" Restaurant MediterraNeo","address":"Johannesgasse 28\n ","postcode":"1030","city":"Wien","countrycode":"  A","latitude":"48.201809","longitude":"16.378889","details":" "},{"name":" Kojiro","address":"Rechte Wienzeile 9\n ","postcode":"1040","city":"Wien","countrycode":"  A","latitude":"48.198862","longitude":"16.364900","details":"Sushi Bar, Tel. +43.1.5866233"},{"name":" Klettenheimers KleinKunstCafe","address":"Lederergasse 17\n ","postcode":"1080","city":"Wien","countrycode":"  A","latitude":"48.211414","longitude":"16.348513","details":"Tel. +43.1.4025478, www.klettenheimers.com"},{"name":" KIZ-Corner","address":"Bergheidengasse 4\n ","postcode":"1130","city":"Wien","countrycode":"  A","latitude":"48.169902","longitude":"16.289017","details":"Tel. +43.664.8544350, www.kiz.at"},{"name":" Isis","address":"Schleifmühlgasse 1\n ","postcode":"1040","city":"Wien","countrycode":"  A","latitude":"48.196318","longitude":"16.366839","details":"Pizzas, Falafel, Orientalisches, Tel. +43.1.9530356"},{"name":" Hofburgstüberl","address":"Hofburgpassage 4\n ","postcode":"1010","city":"Wien","countrycode":"  A","latitude":"48.207604","longitude":"16.365557","details":"Tel. +43.1.5351932"},{"name":" Good Mood Food","address":"Hietzinger Hauptstraße 22 (EKZ)\n ","postcode":"1130","city":"Wien","countrycode":"  A","latitude":"48.186954","longitude":"16.300608","details":"www.goodmoodfood.at"},{"name":" Gelateria Bortolotti","address":"Mariahilferstraße 94\n ","postcode":"1070","city":"Wien","countrycode":"  A","latitude":"48.196992","longitude":"16.345432","details":"www.bortolotti.at"},{"name":" Gelateria Bortolotti","address":"Mariahilferstraße 66\n ","postcode":"1070","city":"Wien","countrycode":"  A","latitude":"48.198646","longitude":"16.350371","details":"www.bortolotti.at"},{"name":" Gelateria Bortolotti","address":"Mariahilferstraße 22\n ","postcode":"1070","city":"Wien","countrycode":"  A","latitude":"48.200494","longitude":"16.356570","details":"www.bortolotti.at"},{"name":" Frömmels Conditorei Cafe","address":"Zieglergasse 70\n ","postcode":"1070","city":"Wien","countrycode":"  A","latitude":"48.204118","longitude":"16.345221","details":"Tel. +43.1.5267898, www.froemmel.at"},{"name":" Eisstanizl","address":"Stadlauerstraße 9\n ","postcode":"1220","city":"Wien","countrycode":"  A","latitude":"48.225434","longitude":"16.452207","details":"Tel. +43.1.2854635"},{"name":" Doga Imbiss","address":"Hellwagstraße 24\n ","postcode":"1200","city":"Wien","countrycode":"  A","latitude":"48.238593","longitude":"16.383364","details":"Tel. +43.699.11593917"},{"name":" Cantino","address":"Seilerstätte 30\n ","postcode":"1010","city":"Wien","countrycode":"  A","latitude":"48.203857","longitude":"16.373231","details":"Tel. +43.1.5125446, www.cantino.at"},{"name":" Cafe-Restaurant Residenz","address":"Schloss Schönbrunn, Kavalierstrakt 52\n ","postcode":"1130","city":"Wien","countrycode":"  A","latitude":"48.185545","longitude":"16.314010","details":"Tel. +43.1.24100.0, www.cafe-residenz.at"},{"name":" Cafe-Konditorei Vock","address":"Theresiengasse 6\n ","postcode":"2500","city":"Baden","countrycode":"  A","latitude":"48.009040","longitude":"16.233993","details":"Konditorei, Bäckerei, Café, Tel. +43.2252.44033"},{"name":" Cafe Sperlhof","address":"Grosse Sperlgasse 41\n ","postcode":"1020","city":"Wien","countrycode":"  A","latitude":"48.219773","longitude":"16.378406","details":"Billiardtische (Karambol und Pool), Schach, Tischfussball, Tischtennis, Kartenspiele, Back Gammon..."},{"name":" Café Nautilus","address":"Burgring 7 (im Naturhistorischen Museum)\n ","postcode":"1010","city":"Wien","countrycode":"  A","latitude":"48.205644","longitude":"16.360622","details":"Erfrischungen und kleine Mahlzeiten, Tel. +43.1.5240250"},{"name":" Cafe Mayer","address":"Wallrissstasse 94\n ","postcode":"1180","city":"Wien","countrycode":"  A","latitude":"48.233386","longitude":"16.317207","details":"Cafe, Bäckerei, Konditorei, Tel. +43.1.4701473"},{"name":" Blaue Bar","address":"Philharmoniker Straße 4\n ","postcode":"1010","city":"Wien","countrycode":"  A","latitude":"48.203900","longitude":"16.369484","details":"Tel +43.1.51456842, www.sacher.com/de-blaue-bar.htm"},{"name":" Bellissima","address":"Hietzinger Hauptstraße 69\n ","postcode":"1130","city":"Wien","countrycode":"  A","latitude":"48.187103","longitude":"16.283803","details":"Eiscafé, Tel. +43.1.8772528"},{"name":" Bäckerei Gül","address":"Rechte Wienzeile 45\n ","postcode":"1050","city":"Wien","countrycode":"  A","latitude":"48.196339","longitude":"16.358222","details":"Tel. +43.1.5866984"},{"name":" Bäckerei Gül","address":"Yppenplatz 7\n ","postcode":"1160","city":"Wien","countrycode":"  A","latitude":"48.212951","longitude":"16.335389","details":"Tel. +43.1.4089017"},{"name":" Bäckerei Gül","address":"Othmargasse 42\n ","postcode":"1200","city":"Wien","countrycode":"  A","latitude":"48.23102&","longitude":"16.369350","details":"Tel. +43.1.3343727"},{"name":" Bäckerei Gül","address":"Hütteldorfer Straße 113\n ","postcode":"1140","city":"Wien","countrycode":"  A","latitude":"48.198886","longitude":"16.313139","details":"Tel. +43.1.9823010"},{"name":" Bäckerei Cafe Felzl","address":"Schottenfeldgasse 88\n ","postcode":"1070","city":"Wien","countrycode":"  A","latitude":"48.206390","longitude":"16.343333","details":"Tel. +43.1.5230141, www.felzl.at"},{"name":" Bäckerei Cafe Felzl","address":"Kaiserstraße Ecke Westbahnstraße\n ","postcode":"1070","city":"Wien","countrycode":"  A","latitude":"48.201887","longitude":"16.340392","details":"Tel. +43.664.8544598, www.felzl.at"},{"name":" Al Pacino","address":"Wittelsbachstraße 3\n ","postcode":"1020","city":"Wien","countrycode":"  A","latitude":"48.206242","longitude":"16.398636","details":"Pizzeria, Tel. +43.1.7264495, www.al-pacino.at"},{"name":" 1. Favoritner Steckerlfischbraterei","address":"Viktor Adler-Markt Stand 74\n ","postcode":"1100","city":"Wien","countrycode":"  A","latitude":"48.176689","longitude":"16.376436","details":"Tel. +43.676.639691"},{"name":" Das Eis","address":"Marktplatz 21\n ","postcode":"2380","city":"Perchtoldsdorf","countrycode":"  A","latitude":"48.118014","longitude":"16.266241","details":"www.daseis.at"},{"name":" Das Eis","address":"Maurer Hauptplatz 10/2\n ","postcode":"1230","city":"Wien","countrycode":"  A","latitude":"48.151258","longitude":"16.267361","details":"Tel +43.1.8893498, www.daseis.at"},{"name":" Heiligkreuz","address":"Reimmichlstraße 18\n ","postcode":"6060","city":"Hall in Tirol","countrycode":"  A","latitude":"47.286079","longitude":"11.496912","details":"Hotel-Restaurant und -Bar, Tel. +43.5223.57114, www.heiligkreuz.at"},{"name":" Bella Vita","address":"Vogelweiderstraße 9\n ","postcode":"5020","city":"Salzburg","countrycode":"  A","latitude":"47.807841","longitude":"13.055240","details":"italienische und pakistanische Spezialitäten, www.bella-vita-salzburg.at"},{"name":" Ramsau Alm","address":"am Laudachsee\n ","postcode":"4810","city":"Gmunden","countrycode":"  A","latitude":"47.880347","longitude":"13.849554","details":"unverkitschtes Salzkammergut, Tel. +43.7203.16847, www.laudachsee.com"},{"name":" Stiegl-Ambulanz","address":"Alserstraße 4 (im alten AKH, UNI-Campus, Hof 1)\n ","postcode":"1090","city":"Wien","countrycode":"  A","latitude":"48.216273","longitude":"16.351572","details":"Tel. +43.1.4021150, www.stiegl-ambulanz.at"},{"name":" Bäckerei Café Taumberger","address":"Bahnhofstraße 38 C\n ","postcode":"9020","city":"Klagenfurt","countrycode":"  A","latitude":"46.618636","longitude":"14.312168","details":"Tel. +43.463.513471, office@taumberger.co.at, www.taumberger.co.at"},{"name":" Naturbäckerei Lagler","address":"Mantschehofstraße 2\n ","postcode":"9020","city":"Klagenfurt","countrycode":"  A","latitude":"46.640159","longitude":"14.292426","details":"Tel. +43.463.428545, Bäckerei mit Kaffeehaus, Gastgarten, Sonntag geöffnet"},{"name":" Naturbäckerei Lagler","address":"Heiligengeistplatz 3\n ","postcode":"9020","city":"Klagenfurt","countrycode":"  A","latitude":"46.623995","longitude":"14.304496","details":"Tel. +43.463.514742, Bäckerei, Kaffeehaus mit kleinen Imbissen, Sonntag geöffnet"},{"name":" Naturbäckerei Lagler","address":"Radetzkystraße 31\n ","postcode":"9020","city":"Klagenfurt","countrycode":"  A","latitude":"46.627618","longitude":"14.297465","details":"Tel. +43.463.508703, kleine Imbisse und Frühstücksangebot"},{"name":" Naturbäckerei Lagler","address":"Keutschacher Straße 120\n ","postcode":"9073","city":"Klagenfurt-Viktring","countrycode":"  A","latitude":"46.592327","longitude":"14.274308","details":"Tel. +43.463.292511, verschiedenste Frühstücksangebote, großes Getränkeangebot, Sonntag geöffnet"},{"name":" Naturbäckerei Lagler","address":"Völkermarkter Straße 146\n ","postcode":"9020","city":"Klagenfurt","countrycode":"  A","latitude":"46.625362","longitude":"14.341455","details":"Tel. +43.463.339809, großes Kaffeehaus, Gastgarten, großes Imbiss- und Frühstücksangebot, Sonntag geöffnet"},{"name":" Bäckerei Cafe Welzenegg","address":"Welzeneggerstraße 84\n ","postcode":"9020","city":"Klagenfurt","countrycode":"  A","latitude":"46.632964","longitude":"14.335614","details":"Bio-Backwaren von Bäckerei Martin Auer (Graz), Tel. +43.463.418311, großes Kaffeehaus, Gastgarten, Sonntag geöffnet"},{"name":" Tiroler Hof","address":"Grafenweg 36\n ","postcode":"6361","city":"Hopfgarten","countrycode":"  A","latitude":"47.451352","longitude":"12.139677","details":"Tel. +43.5335.2525, www.tirolerhofwirt.at"},{"name":" Stadt-Cafe de La Tour","address":"Lidmanskygasse 8\n ","postcode":"9020","city":"Klagenfurt","countrycode":"  A","latitude":"46.622145","longitude":"14.308155","details":"Mittagessen, Tel. +43.463.57687, stadtcafe@diakonie-delatour.at, www.diakonie-delatour.at/stadtcafe"},{"name":" Petit Cafe","address":"Domgasse 6\n ","postcode":"9020","city":"Klagenfurt","countrycode":"  A","latitude":"46.623824","longitude":"14.309648","details":"Bio-zertifizierter Betrieb, Tel. +43.463.507994, genuss@petitcafe.at, www.petitcafe.at"},{"name":" Cafe COMO","address":"Bahnhofstraße 15\n ","postcode":"9020","city":"Klagenfurt","countrycode":"  A","latitude":"46.623795","longitude":"14.310862","details":"Tel. +43.664.2480680, www.como1.at"},{"name":" Mediterran","address":"Rosenauerstraße 19\n ","postcode":"4040","city":"Linz-Urfahr","countrycode":"  A","latitude":"48.315185","longitude":"14.277618","details":"Tel. +43.732.739897, griechische und vegetarische Küche, Di-Fr, So 11:30-14:00 u. 17:30-24:00, Sa 17:30-24:00"},{"name":" Restaurant Schlosspark Mauerbach","address":"Herzog Friedrichplatz 1\n ","postcode":"3001","city":"Mauerbach","countrycode":"  A","latitude":"48.249173","longitude":"16.167079","details":"Tel. +43.1.97030.100, www.schlosspark-mauerbach.at"},{"name":" Café Cult","address":"Hellbrunner Straße 3\n ","postcode":"5020","city":"Salzburg","countrycode":"  A","latitude":"47.796645","longitude":"13.054595","details":"Tel. +43.662.845601, cafe-cult-salzburg.homepagestart.de"},{"name":" Cafe Fingerlos","address":"Franz-Josef-Straße 9\n ","postcode":"5020","city":"Salzburg","countrycode":"  A","latitude":"47.807303","longitude":"13.043383","details":"Tel. +43.662.874213"},{"name":" Tiroler Stubn","address":"Aberseestraße 9\n ","postcode":"5340","city":"Sankt Gilgen","countrycode":"  A","latitude":"47.765742","longitude":"13.365376","details":"Tel. +43.6227.2317.0, www.haustirol.com"},{"name":" PiNO Ristorante-Pizzeria-Enoteca","address":"Brühlerstraße 6\n ","postcode":"2340","city":"Mödling","countrycode":"  A","latitude":"48.083775","longitude":"16.281967","details":"Tel. +43.2236.860187, www.pino-ristorante.at"},{"name":" Gasthof Grossmann","address":"Stadtplatz 9\n ","postcode":"3860","city":"Heidenreichstein","countrycode":"  A","latitude":"48.866060","longitude":"15.123497","details":"Tel. +43.2862.52279, gasthof.grossmann@gmx.at, www.tiscover.at/gasthof.grossmann"},{"name":" Masé","address":"Schlossbergplatz/Sackstraße 20\n ","postcode":"8010","city":"Graz","countrycode":"  A","latitude":"47.072858","longitude":"15.436458","details":"Tel. +43.664.4268595, Mo-Fr 15-24, Sa 13-24, So+Fei. geschlossen"},{"name":" Brötchenstube Piotrowsky","address":"Schwertgasse 2\n ","postcode":"1010","city":"Wien","countrycode":"  A","latitude":"48.212508","longitude":"16.369777","details":"Mo-Fr 9-16h, www.piotrowski-broetchenstube.at"},{"name":" Echo der City Thai","address":"Passauer Platz 2\n ","postcode":"1010","city":"Wien","countrycode":"  A","latitude":"48.212705","longitude":"16.370179","details":"Thailändisch, www.echo-citythai.cc"},{"name":" Ristorante Rosmarino","address":"Schrannenplatz 3\n ","postcode":"2352","city":"Gumpoldskirchen","countrycode":"  A","latitude":"48.045703","longitude":"16.277021","details":"Hausgemachte Pastaspezialitäten, Tel. +43.664.4133303, www.rosmarino.at"},{"name":" Bierli-Naschmarkt","address":"Naschmarkt\n ","postcode":"1060","city":"Wien","countrycode":"  A","latitude":"48.197239","longitude":"16.359640","details":"Grill- und Bierhaus, internat./orientalische Grillspezialitäten, Tel. +43.676.844344205, www.bierli-naschmarkt.at"},{"name":" Restaurant im Posthof","address":"Posthofstraße 43\n ","postcode":"4020","city":"Linz","countrycode":"  A","latitude":"48.311749","longitude":"14.311500","details":" "},{"name":" Schusterhäusl","address":"Flachauer Straße 17\n ","postcode":"5542","city":"Flachau","countrycode":"  A","latitude":"47.347599","longitude":"13.392004","details":"Steakhaus, Tel. +43.6457.2311.22, www.schusterhaeusl.at"},{"name":" Lebenbauer","address":"Teinfaltstraße 3\n ","postcode":"1010","city":"Wien","countrycode":"  A","latitude":"48.211749","longitude":"16.363459","details":"Vollwert & Fisch, Tel. +43.1.5335556, lebenbauer-restaurant@chello.at, www.lebenbauer.cc"},{"name":" Restaurant Langostinos","address":"Bahnhofstraße 4\n ","postcode":"4861","city":"Schörfling","countrycode":"  A","latitude":"47.944448","longitude":"13.593669","details":"Haubenrestaurant am Attersee, www.langostinos.at"},{"name":" Gasthaus Stafler","address":"Ehrenfelsgasse 4\n ","postcode":"1120","city":"Wien","countrycode":"  A","latitude":"48.182324","longitude":"16.325591","details":"gute Hausmannskost, www.stafler.at, Tel. +43.1.8156235"},{"name":" Gasthof Wellenhof","address":"Landstraße 60\n ","postcode":"6911","city":"Lochau","countrycode":"  A","latitude":"47.525955","longitude":"9.7508059","details":"Gasthof, Pension, Restaurant, Tel. +43.5574.42020, www.wellenhof-lochau.at, schöner Blick auf den Bodensee"},{"name":" Spoons","address":"Donauturmstraße 4\n ","postcode":"1220","city":"Wien","countrycode":"  A","latitude":"48.240395","longitude":"16.410342","details":"Cafe & Restaurant, Tel. +43.1.2633572.20, 9:30-23:00, www.cafe-spoons.at"},{"name":" Barista's University","address":"Heinrichstraße 29\n ","postcode":"8010","city":"Graz","countrycode":"  A","latitude":"47.079300","longitude":"15.448295","details":"Tel. +43.664.5142326, Mo-Fr 7-20, Sa/So/Fei 9-18, www.baristas.at"},{"name":" Barista's Uptown","address":"Sporgasse 34\n ","postcode":"8010","city":"Graz","countrycode":"  A","latitude":"47.073417","longitude":"15.439853","details":"Tel. +43.676.9742997, Mo-Fr 7-21, Sa 8-19, So 9-18, www.baristas.at"},{"name":" Die Scherbe","address":"Stockergasse 2\n ","postcode":"8020","city":"Graz","countrycode":"  A","latitude":"47.074243","longitude":"15.432497","details":"Cafe, Restaurant, Tel. +43.316.760654, Mo-Sa 10–01, So 10-24, www.scherbe.com"},{"name":" Cofetaria Gabriela","address":"Strada Piata Sfatului Nr 28\n ","postcode":"500000","city":"Brasov","countrycode":" RO","latitude":"45.642244","longitude":"25.588359","details":"Luca Gabriela, Tel. +40.741.390219, hausgemachte Torten und Mehlspeisen"},{"name":" Heuriger Puchinger","address":"Lindobelgasse 45\n ","postcode":"3495","city":"Rohrendorf","countrycode":"  A","latitude":"48.431321","longitude":"15.662105","details":"Johann u. Melitta Puchinger, Tel. +43.2732.76743, +43.699.81421004, www.heurigerpuchinger.com"},{"name":" Takami","address":"Ratschkygasse 5\n ","postcode":"1120","city":"Wien","countrycode":"  A","latitude":"48.176910","longitude":"16.329297","details":"Sushi & warme Speisen, www.takami.at"},{"name":" Seoul","address":"Praterstraße 26\n ","postcode":"1020","city":"Wien","countrycode":"  A","latitude":"48.214128","longitude":"16.383557","details":"Koreanisch, Tel. +43.1.2186528"},{"name":" Vapiano","address":"Praterstraße 24-26\n ","postcode":"1020","city":"Wien","countrycode":"  A","latitude":"48.213880","longitude":"16.383422","details":"Tel. +43.1.2122323, Mo-Sa 11-24, So+Fei 12-23"},{"name":" Puchmayrhof","address":"Weissenberg 12\n ","postcode":"4501","city":"Neuhofen","countrycode":"  A","latitude":"48.160135","longitude":"14.227613","details":"Tel. +43.7227.20994, www.puchmayrhof.info, puchmayrhof@aon.at"},{"name":" Zum Weissen Rauchfangkehrer","address":"Weihburggasse 4\n ","postcode":"1010","city":"Wien","countrycode":"  A","latitude":"48.207045","longitude":"16.372317","details":"Tel. +43.1.5123471, rauchfangkehrer@utanet.at, www.weisser-rauchfangkehrer.at"},{"name":" Cafe Forum","address":"Rathausplatz 4\n ","postcode":"6063","city":"Rum","countrycode":"  A","latitude":"47.287286","longitude":"11.458828","details":"Tel. +43.512.214200, täglich 09:30-19:00, www.rum.at/cafe-forum/"},{"name":" Loving Hut","address":"Favoritenstraße 156\n ","postcode":"1100","city":"Wien","countrycode":"  A","latitude":"48.170711","longitude":"16.379369","details":"Vegane Küche, www.lovinghut.co.at"},{"name":" Der Kuckuck","address":"Himmelpfortgasse 15\n ","postcode":"1010","city":"Wien","countrycode":"  A","latitude":"48.205524","longitude":"16.373840","details":"Tel. +43.1.5128470, Mo-Sa 18-24, www.derkuckuck.com"},{"name":" Hanoi Express","address":"Sechsschimmelgasse 16\n ","postcode":"1090","city":"Wien","countrycode":"  A","latitude":"48.225773","longitude":"16.351861","details":"vietnamesische Küche, Tel. 01.3073161, Mo-So 11-23"},{"name":" Teka Sushi","address":"Billrothstraße 5\n ","postcode":"1190","city":"Wien","countrycode":"  A","latitude":"48.233826","longitude":"16.352059","details":"Tel. 01.9610630, Mo-Fr 11:30-14:30+17:00-22:30, So+Fei 17:30-22:30, Sa zu, www.tekasushi.at"},{"name":" Pizzeria Figaro","address":"Wünschendorf 190\n ","postcode":"8200","city":"Gleisdorf","countrycode":"  A","latitude":"47.101381","longitude":"15.727028","details":"Holzofenpizza, selbstgezogene Sprossen, 9-22 (ausser So, Mo), Tel. 03112.6173, www.solar-cafe.at"},{"name":" Heidi´s Vollwert Café Restaurant (Gasthaus Stadlmayr)","address":"Rüstorf 18\n ","postcode":"4690","city":"Schwanenstadt","countrycode":"  A","latitude":"48.044138","longitude":"13.791776","details":"Café Restaurant, Tel. 0676.9213297, www.speisen-mit-allen-sinnen.at"},{"name":" ra'mien","address":"Gumpendorfer Straße 9\n ","postcode":"1060","city":"Wien","countrycode":"  A","latitude":"48.200200","longitude":"16.361432","details":"Asiatisch, Nudeln, Di-So 11-24, Tel. +43.1.5854798, www.ramien.at"},{"name":" Juifenalm","address":"Gries\n ","postcode":"6182","city":"Gries im Sellraintal","countrycode":"  A","latitude":"47.169468","longitude":"11.162109","details":"Tel. +43.664.5305064, 2.022m Seehöhe, Winterwanderweg, 5 km Naturrodelbahn"},{"name":" Vapiano","address":"Theobaldgasse 19\n ","postcode":"1060","city":"Wien","countrycode":"  A","latitude":"48.200479","longitude":"16.358599","details":"Tel. +43.1.5811212, Mo-Sa 11-24, So+Fei 12-23"},{"name":" Billardcenter Lucky Shot","address":"Grazer Straße 30\n ","postcode":"8200","city":"Gleisdorf","countrycode":"  A","latitude":"47.105397","longitude":"15.702542","details":"Tel. +43.3112.38167, www.luckyshot.at"},{"name":" Pelmbergstüberl","address":"Pelmberg 2\n ","postcode":"4202","city":"Hellmonsödt","countrycode":"  A","latitude":"48.408778","longitude":"14.319963","details":"österreichische Küche, täglich (ausser Mo) 11:30-19:00, Tel. +43.7215.39110, www.pelmbergstueberl.at, Freilichtmuseum nebenan"},{"name":" noi","address":"Payergasse 12\n ","postcode":"1160","city":"Wien","countrycode":"  A","latitude":"48.214042","longitude":"16.336390","details":"Tel. +43.1.4031347, www.noi.at.vu, Bioprodukte, Frühstück, Kochkurse, rollstuhlgerecht, Schanigarten, Di–Fr 11–24, Sa 9–24, So 10–17"},{"name":" Cafe Promenade","address":"Erzherzog Johann Allee 1\n ","postcode":"8010","city":"Graz","countrycode":"  A","latitude":"47.072255","longitude":"15.444105","details":"Tel. +43.316.813840, www.cafepromenade.at, office@cafepromenade.at"},{"name":" Cafe-Restaurant Oktogon","address":"Himmelstraße Ecke Höhenstraße\n ","postcode":"1190","city":"Wien","countrycode":"  A","latitude":"48.262712","longitude":"16.312551","details":"www.himmel.at, Mi-Fr 12-22:00, Sa+So+Fei 11-22:00, Frühstück Sa+So+Fei 11-14:00"},{"name":" Werfenwenger Bauernladen","address":"Weng 151\n ","postcode":"5453","city":"Werfenweng","countrycode":"  A","latitude":"47.471654","longitude":"13.271209","details":"Köstlichkeiten aus der Region, www.werfenweng.org/show_page.php?pid=209"},{"name":" Sri Thai Imbiss","address":"Baumgasse 18\n ","postcode":"1030","city":"Wien","countrycode":"  A","latitude":"48.195793","longitude":"16.397508","details":"Tel. +43.676.7079296, thailändisch, Schauküche, Hundeverbot, Schanigarten, www.sri-thai-imbiss.at"},{"name":" Tsering Tashi Tibet Restaurant","address":"Währinger Gürtel 102\n ","postcode":"1090","city":"Wien","countrycode":"  A","latitude":"48.225273","longitude":"16.349952","details":"Tel. +43.1.3151012.16, www.tibet-restaurant.at, einziges tibetisches Restaurant in Österreich"},{"name":" Tribeka 3","address":"Leonhardstraße 82\n ","postcode":"8010","city":"Graz","countrycode":"  A","latitude":"47.075404","longitude":"15.458954","details":"Trink besseren Kaffee, Mo-Fr 7-20, Sa 8-20, So 9-20, www.tribeka.at"},{"name":" Tribeka 2","address":"Technikerstraße 13\n ","postcode":"8010","city":"Graz","countrycode":"  A","latitude":"47.068006","longitude":"15.45056'","details":"Trink besseren Kaffee, Mo-Fr 7-20, Sa 8-20, So 9-20, www.tribeka.at"},{"name":" Tribeka 1","address":"Grieskai 2\n ","postcode":"8020","city":"Graz","countrycode":"  A","latitude":"47.070706","longitude":"15.434492","details":"Trink besseren Kaffee, Mo-Fr 7-20, Sa 8-20, So 9-20, www.tribeka.at"},{"name":" Mangolds","address":"Griesgasse 11\n ","postcode":"8020","city":"Graz","countrycode":"  A","latitude":"47.069895","longitude":"15.434106","details":"Mo-Fr 11-19, Sa 11-16; www.mangolds.at"},{"name":" Weinzirl - Restaurant im Konzerthaus","address":"Am Heumarkt 6\n ","postcode":"1030","city":"Wien","countrycode":"  A","latitude":"48.200486","longitude":"16.377868","details":"Tel. +43.1.5125550, Fax +43.1.5125550.28, www.weinzirl.at"},{"name":" Stadtkeller GmbH","address":"Gutauerstraße 14\n ","postcode":"4230","city":"Pregarten","countrycode":"  A","latitude":"48.356325","longitude":"14.530721","details":"Mi-Sa 17:00-01:00, So 16:00-23:00, www.stadtkeller.co.at"},{"name":" Hollerei","address":"An der Donau-Au 1 \n (im Museum ESSL)","postcode":"3400","city":"Klosterneuburg","countrycode":"  A","latitude":"48.302067","longitude":"16.33314'","details":"vegetarische, frische Küche; Tel. +43.2243.37050260, www.hollerei.at"},{"name":" Hollerei","address":"Hollergasse 9\n ","postcode":"1150","city":"Wien","countrycode":"  A","latitude":"48.185514","longitude":"16.324812","details":"vegetarische, frische Küche; Tel. +43.1.8923356, www.hollerei.at"},{"name":" Starbucks","address":"Invalidenstraße 11\n ","postcode":"1030","city":"Wien","countrycode":"  A","latitude":"48.205919","longitude":"16.385917","details":"Tel+Fax: +43.1.3366332521, Mo-Fr: 07:00-21:00, Sa: 09:00-21:00, So+Feiertag: 09:00-19:00"},{"name":" Cafe Schwarzenberg","address":"Kärntner Ring 17\n ","postcode":"1010","city":"Wien","countrycode":"  A","latitude":"48.201751","longitude":"16.374137","details":"Tel.: +43.1.5128998, Fax: +43.1.5128998.30, office@cafe-schwarzenberg.at, www.cafe-schwarzenberg.at"},{"name":" Cafe Mozart","address":"Albertinaplatz 2\n ","postcode":"1010","city":"Wien","countrycode":"  A","latitude":"48.204227","longitude":"16.369401","details":"Tel.: +43.1.24100.0, Fax.: +43.1.24100.219"},{"name":" Vinoteca Tropea","address":"Hofmühlgasse 15/1\n ","postcode":"1060","city":"Wien","countrycode":"  A","latitude":"48.193849","longitude":"16.351615","details":"Mo-Fr 11:30-14:30 und ab 18 Uhr, Vinothek und Osteria (Kalabrische Spezialitäten), Antipasti, Pasta del giorno, www.vinoteca-tropea.com"},{"name":" Hotel Trinserhof","address":"Trins 106\n ","postcode":"6152","city":"Trins","countrycode":"  A","latitude":"47.084354","longitude":"11.423141","details":"www.trinserhof.com"},{"name":" Gulaschmuseum","address":"Schulerstraße 20\n ","postcode":"1010","city":"Wien","countrycode":"  A","latitude":"48.207701","longitude":"16.376870","details":"Tel. +43.1.5121017, www.gulasch.at"},{"name":" Espresso \"Mary\"","address":"Marchfeldstraße 16-18\n ","postcode":"1200","city":"Wien","countrycode":"  A","latitude":"48.243331","longitude":"16.379016","details":"Tel. +43.650.7872435, Mail: chefin@espresso-mary.at, Web: www.espresso-mary.at,  Dart-Automat, Backgammon, Dame, Schach, Kartenspiel"},{"name":" Hotel Prägant","address":"Kirchheimer Weg 6\n ","postcode":"9546","city":"Bad Kleinkirchheim","countrycode":"  A","latitude":"46.814643","longitude":"13.797454","details":"T.: +43.4240.452.0, F.: +43.4240.453.17, M.: praegant@hhbkk.at, http://www.praegant.at"},{"name":" Cuenstler","address":"Kornmarktstraße 6\n ","postcode":"6900","city":"Bregenz","countrycode":"  A","latitude":"47.504308","longitude":"9.7475445","details":"Tel: +43.676.5139195, Mobil: 0664.1322392, info@cuenstler.at"},{"name":" Hofzuckerbäcker L. Heiner","address":"Kärntnerstraße 21-23\n ","postcode":"1010","city":"Wien","countrycode":"  A","latitude":"48.206297","longitude":"16.371453","details":"Telefon: +43.1.512 68 63, www.heiner.co.at, Traditionsreiche Wiener Café-Konditorei"},{"name":" Adler-Restaurant im Center Süd","address":"Mariazeller Straße 254\n ","postcode":"3106","city":"St. Pölten","countrycode":"  A","latitude":"48.162317","longitude":"15.61443'","details":"Tel. +43.2742.88253022 "},{"name":" Gasthof Krönele","address":"Reichsstraße 12\n ","postcode":"6890","city":"Lustenau","countrycode":"  A","latitude":"47.429188","longitude":"9.649754'","details":"gasthof@kroenele.com, Tel. +43.5577.82118, Fax +43.5577.82118.50"},{"name":" Kirchenwirt Mehrn","address":"Faberstraße 7\n ","postcode":"6230","city":"Brixlegg","countrycode":"  A","latitude":"47.426473","longitude":"11.882758","details":"kirchenwirt.mehrn@aon.at, +43.5337.63363"},{"name":" Kunst Café Jindrak","address":"Herrenstraße 20\n ","postcode":"4020","city":"Linz","countrycode":"  A","latitude":"48.301630","longitude":"14.286904","details":"Kaffeehaus"},{"name":" Noodle Box","address":"Graben 32b\n ","postcode":"4010","city":"Linz","countrycode":"  A","latitude":"48.304643","longitude":"14.288709","details":"Fast Food, Nudeln"},{"name":" Sportcity Glaser","address":"Infangstraße 2\n ","postcode":"4400","city":"Steyr","countrycode":"  A","latitude":"48.064227","longitude":"14.42519'","details":"Gasthaus, Kegeln, Billardspielen, Beamer für Sportübertragungen, Tel. +43.7252.77650"},{"name":" Inge's Bio Cafe","address":"Hauptstraße 71\n ","postcode":"4040","city":"Linz-Urfahr","countrycode":"  A","latitude":"48.314503","longitude":"14.280991","details":"Vegetarisch, Vollwert/Biokost, Tel. +43.732.710014"},{"name":" Mehringer Café-Konditorei","address":"Marktstraße 18d\n ","postcode":"6850","city":"Dornbirn","countrycode":"  A","latitude":"47.411837","longitude":"9.742423'","details":"Gastgarten, Tel. +43.5572.20900"},{"name":" Metzgerei Rimmele & Co","address":"Rathausstraße 31\n ","postcode":"6900","city":"Bregenz","countrycode":"  A","latitude":"47.503974","longitude":"9.746533'","details":"Gastgarten, Tel. +43.5574.42956"},{"name":" Gasthaus zum Agnesbrünnl","address":"Jägerwiese 221\n ","postcode":"1190","city":"Wien","countrycode":"  A","latitude":"48.272589","longitude":"16.300701","details":"Gasthaus, Gastgarten, www.jaegerwiese.at, Tel. +43.1.4401300, Mi-So 08:00-19:00"},{"name":" Santa Maria","address":"Boerhaavegasse 21\n ","postcode":"1030","city":"Wien","countrycode":"  A","latitude":"48.194283","longitude":"16.391572","details":"Pizzeria, Tel. +43.1.7153424"},{"name":" Vollkornbäckerei Waldherr","address":"Marc-Aurel-Straße 4\n ","postcode":"1010","city":"Wien","countrycode":"  A","latitude":"48.211812","longitude":"16.37268'","details":"Vegetarisch, Konditorei, Bäckerei, www.vollkornbaeckerei-waldherr.at, Bioprodukte, rollstuhlgerecht, Tel. +43.1.2760332"},{"name":" Vegirant","address":"Währinger Straße 57\n ","postcode":"1090","city":"Wien","countrycode":"  A","latitude":"48.223143","longitude":"16.351932","details":"Vegetarisch, www.vegirant.at, rollstuhlgerecht, Tel. +43.1.4078287"},{"name":" Trattoria Vecchia Genova","address":"Gutenberggasse 28\n ","postcode":"1070","city":"Wien","countrycode":"  A","latitude":"48.204058","longitude":"16.355494","details":"Italienisch, Schanigarten, Tel. +43.1.5232377"},{"name":" Tichy","address":"Reumannplatz 13\n ","postcode":"1100","city":"Wien","countrycode":"  A","latitude":"48.173836","longitude":"16.377428","details":"Eissalon, www.tichy-eis.at, rollstuhlgerecht, Schanigarten, Tel. +43.1.6044446"},{"name":" Teestube in Demmers Teehaus","address":"Mölker Bastei 5\n ","postcode":"1010","city":"Wien","countrycode":"  A","latitude":"48.213078","longitude":"16.362888","details":"Teehaus, www.demmer.at, Tel. +43.1.5335995"},{"name":" Subway","address":"Opernring 5\n ","postcode":"1010","city":"Wien","countrycode":"  A","latitude":"48.202437","longitude":"16.368251","details":"Fastfood, www.subway.com, rollstuhlgerecht, Tel. +43.1.9663890"},{"name":" Starbucks","address":"Handelskai 94-96\n ","postcode":"1200","city":"Wien","countrycode":"  A","latitude":"48.241374","longitude":"16.386313","details":"Café, Espresso, www.starbucks.at, rollstuhlgerecht, Tel. +43.1.3747898"},{"name":" Starbucks","address":"Währinger Gürtel 18-20\n ","postcode":"1090","city":"Wien","countrycode":"  A","latitude":"48.21957&","longitude":"16.343426","details":"Café, Espresso, www.starbucks.at, rollstuhlgerecht, Tel. +43.1.4086273"},{"name":" Starbucks","address":"Währinger Straße 18\n ","postcode":"1090","city":"Wien","countrycode":"  A","latitude":"48.217398","longitude":"16.359164","details":"Café, Espresso, www.starbucks.at, Tel. +43.1.3196440"},{"name":" Starbucks","address":"Neubaugasse 4\n ","postcode":"1070","city":"Wien","countrycode":"  A","latitude":"48.198591","longitude":"16.349938","details":"Café, Espresso, www.starbucks.at, Schanigarten, Tel. +43.1.5220238"},{"name":" Starbucks","address":"Mariahilfer Straße 23-25\n ","postcode":"1060","city":"Wien","countrycode":"  A","latitude":"48.200956","longitude":"16.358558","details":"Café, Espresso, www.starbucks.at, Schanigarten, rollstuhlgerecht, Tel. +43.1.5855947"},{"name":" Starbucks","address":"Reitschulgasse 4\n ","postcode":"1010","city":"Wien","countrycode":"  A","latitude":"48.207386","longitude":"16.367061","details":"Café, Espresso, www.starbucks.at, Schanigarten, Tel. +43.1.5328728"},{"name":" Starbucks","address":"Rotenturmstraße 22\n ","postcode":"1010","city":"Wien","countrycode":"  A","latitude":"48.211445","longitude":"16.375873","details":"Café, Espresso, www.starbucks.at, Schanigarten, Tel. +43.1.8903990"},{"name":" Starbucks","address":"Kärntner Straße 49\n ","postcode":"1010","city":"Wien","countrycode":"  A","latitude":"48.203704","longitude":"16.370321","details":"Café, Espresso, www.starbucks.at, Schanigarten, rollstuhlgerecht, Tel. +43.1.5129881"},{"name":" Starbucks","address":"Bognergasse 4\n ","postcode":"1010","city":"Wien","countrycode":"  A","latitude":"48.210236","longitude":"16.368137","details":"Café, Espresso, www.starbucks.at, Schanigarten, Tel. +43.1.8904382"},{"name":" St. Josef","address":"Mondscheingasse 10\n ","postcode":"1070","city":"Wien","countrycode":"  A","latitude":"48.201257","longitude":"16.350884","details":"Vegetarisch, Bioprodukte, rollstuhlgerecht, Tel. +43.1.5266818"},{"name":" Soupkultur","address":"Wipplingerstraße 32\n ","postcode":"1010","city":"Wien","countrycode":"  A","latitude":"48.213714","longitude":"16.367111","details":"Fastfood, www.soupkultur.at, Schanigarten, Tel. +43.1.5324628"},{"name":" Shiho","address":"Spitalgasse 1\n ","postcode":"1090","city":"Wien","countrycode":"  A","latitude":"48.215441","longitude":"16.350953","details":"Vegetarisch, Bioprodukte, rollstuhlgerecht, Tel. +43.1.4053195"},{"name":" Schrott","address":"Webgasse 44\n ","postcode":"1060","city":"Wien","countrycode":"  A","latitude":"48.196323","longitude":"16.344356","details":"Konditorei, Bäckerei, Tel. +43.1.5978287"},{"name":" Restaurant World","address":"Hofferplatz 5\n ","postcode":"1160","city":"Wien","countrycode":"  A","latitude":"48.208953","longitude":"16.332872","details":"Asiatisch, Orientalisch, Vegetarisch, Essen mit Kindern, Schanigarten, Tel. +43.699.11302807"},{"name":" Restaurant Sapori","address":"Herrengasse 12 (im Radisson SAS Hotel)\n ","postcode":"1010","city":"Wien","countrycode":"  A","latitude":"48.210053","longitude":"16.365453","details":"Italienisch, www.style.vienna.radissonsas.com, rollstuhlgerecht, Tel. +43.1.22780.3400"},{"name":" Restaurant Korso","address":"Mahlerstraße 2\n ","postcode":"1010","city":"Wien","countrycode":"  A","latitude":"48.202984","longitude":"16.370301","details":"Rollstuhlgerecht, Schanigarten, Tel. +43.1.51516.546"},{"name":" Reformhaus Regenbogen","address":"Garnisongasse 12\n ","postcode":"1090","city":"Wien","countrycode":"  A","latitude":"48.216214","longitude":"16.356816","details":"Vegetarisch, Bioprodukte, Fairtrade, Tel. +43.1.4086585"},{"name":" Reformhaus Buchmüller","address":"Neubaugasse 17-19\n ","postcode":"1070","city":"Wien","countrycode":"  A","latitude":"48.199975","longitude":"16.349256","details":"Vegetarisch, www.reformhaus-buchmeuller.at, rollstuhlgerecht, Schanigarten, Tel. +43.1.5237297"},{"name":" Teekunst Teespezialitäten & Kunsthandwerk","address":"Hernalser Hauptstraße 54\n ","postcode":"1170","city":"Wien","countrycode":"  A","latitude":"48.217382","longitude":"16.335044","details":"Teehaus, Bioprodukte, Fairtrade, www.teekunst.at, info@teekunst.at, Mo-Fr: 9:00-18:30, 1. Sa/Monat: 9:00-17:00, Tel. +43.1.4053135"},{"name":" Radatz","address":"Wagramer Straße 94\n ","postcode":"1220","city":"Wien","countrycode":"  A","latitude":"48.242131","longitude":"16.435533","details":"Fastfood, www.radatz.com, Tel. +43.1.2040939"},{"name":" Radatz","address":"Wagramer Straße 94\n ","postcode":"1220","city":"Wien","countrycode":"  A","latitude":"48.242131","longitude":"16.435533","details":"Fastfood, www.radatz.com, Tel. +43.1.2035791"},{"name":" Radatz","address":"Hietzinger Hauptstraße 22 (Ekazent)\n ","postcode":"1130","city":"Wien","countrycode":"  A","latitude":"48.186307","longitude":"16.30026'","details":"Fastfood, www.radatz.com, Schanigarten, Tel. +43.1.8763668"},{"name":" Radatz","address":"Neubaugasse 7\n ","postcode":"1070","city":"Wien","countrycode":"  A","latitude":"48.199082","longitude":"16.349611","details":"Fastfood, www.radatz.com, Schanigarten, Tel. +43.1.5233313"},{"name":" Radatz","address":"Wiedner Hauptstraße 64\n ","postcode":"1040","city":"Wien","countrycode":"  A","latitude":"48.190346","longitude":"16.366339","details":"Fastfood, www.radatz.com, Tel. +43.1.5057175"},{"name":" Radatz","address":"Wipplingerstraße 3\n ","postcode":"1010","city":"Wien","countrycode":"  A","latitude":"48.211477","longitude":"16.371652","details":"Fastfood, www.radatz.com, Tel. +43.1.5356134, Schanigarten"},{"name":" Radatz","address":"Schottengasse 3A\n ","postcode":"1010","city":"Wien","countrycode":"  A","latitude":"48.212708","longitude":"16.363707","details":"Fastfood, www.radatz.com, Tel. +43.1.5338163"},{"name":" Prenner","address":"Gentzgasse 127\n ","postcode":"1180","city":"Wien","countrycode":"  A","latitude":"48.228009","longitude":"16.338429","details":"Konditorei, Bäckerei, rollstuhlgerecht, Schanigarten, Tel. +43.1.4797872"},{"name":" Poigner's Eiscafé","address":"Schlachthausgasse 3\n ","postcode":"1030","city":"Wien","countrycode":"  A","latitude":"48.195869","longitude":"16.409233","details":"Eissalon, www.poigners.at, Schanigarten, Tel. +43.664.1266756"},{"name":" Pizzeria Da Capo","address":"Schönbrunner Straße 64\n ","postcode":"1050","city":"Wien","countrycode":"  A","latitude":"48.189952","longitude":"16.353024","details":"Italienisch, www.pizzadacapo.at, rollstuhlgerecht, Tel. +43.1.5455367"},{"name":" Phil","address":"Gumpendorfer Straße 10-12\n ","postcode":"1060","city":"Wien","countrycode":"  A","latitude":"48.200442","longitude":"16.361544","details":"www.phil.info, Tel. +43.1.5810489"},{"name":" Parkring Restaurant","address":"Parkring 12a\n ","postcode":"1010","city":"Wien","countrycode":"  A","latitude":"48.204865","longitude":"16.377795","details":"Gasthaus, Restaurante, Beisl, www.viennamarriott.com, Essen mit Kindern, rollstuhlgerecht"},{"name":" Nordsee","address":"Wagramer Straße (Donauzentrum Top 130)\n ","postcode":"1220","city":"Wien","countrycode":"  A","latitude":"48.242307","longitude":"16.435336","details":"Fastfood, www.nordsee.at, Tel. +43.1.2034713"},{"name":" Nordsee","address":"Wagramer Straße 83-85 (Donauzentrum Bauteil 5)\n ","postcode":"1220","city":"Wien","countrycode":"  A","latitude":"48.242307","longitude":"16.435336","details":"Fastfood, www.nordsee.at, Tel. +43.1.2033692"},{"name":" Nordsee","address":"Handelskai 94-96 (Millennium City)\n ","postcode":"1200","city":"Wien","countrycode":"  A","latitude":"48.241374","longitude":"16.386313","details":"Fastfood, www.nordsee.at, Tel. +43.1.2409002"},{"name":" Nordsee","address":"Währinger Straße 112\n ","postcode":"1180","city":"Wien","countrycode":"  A","latitude":"48.226354","longitude":"16.344216","details":"Fastfood, www.nordsee.at, Tel. +43.1.4703921"},{"name":" Nordsee","address":"Meidlinger Hauptstraße 36\n ","postcode":"1120","city":"Wien","countrycode":"  A","latitude":"48.179346","longitude":"16.329833","details":"Fastfood, www.nordsee.at, Tel. +43.1.8177084"},{"name":" Nordsee","address":"Simmeringer Hauptstraße 96a/Top 106 (EKZ)\n ","postcode":"1110","city":"Wien","countrycode":"  A","latitude":"48.162475","longitude":"16.428425","details":"Fastfood, www.nordsee.at, Tel. +43.1.7496906"},{"name":" Nordsee","address":"Mariahilfer Straße 84\n ","postcode":"1070","city":"Wien","countrycode":"  A","latitude":"48.197545","longitude":"16.347822","details":"Fastfood, www.nordsee.at, Tel. +43.1.5269414"},{"name":" Nordsee","address":"Neubaugasse 9\n ","postcode":"1070","city":"Wien","countrycode":"  A","latitude":"48.199311","longitude":"16.349507","details":"Fastfood, www.nordsee.at, Schanigarten, Tel. +43.1.5237480"},{"name":" Nordsee","address":"Mariahilfer Straße 34\n ","postcode":"1070","city":"Wien","countrycode":"  A","latitude":"48.19998&","longitude":"16.354796","details":"Fastfood, www.nordsee.at, Schanigarten, Tel. +43.1.5223637"},{"name":" Nordsee","address":"Rochusmarkt Stand 1-2\n ","postcode":"1030","city":"Wien","countrycode":"  A","latitude":"48.202588","longitude":"16.391129","details":"Fastfood, www.nordsee.at, Schanigarten, Tel. +43.1.7134089"},{"name":" Nordsee","address":"Rotenturmstraße 4\n ","postcode":"1010","city":"Wien","countrycode":"  A","latitude":"48.209691","longitude":"16.373557","details":"Fastfood, www.nordsee.at, Tel. +43.1.5122789"},{"name":" Nordsee","address":"Kärntner Straße 25\n ","postcode":"1010","city":"Wien","countrycode":"  A","latitude":"48.206045","longitude":"16.371397","details":"Fastfood, www.nordsee.at, Schanigarten, Tel. +43.1.5127354"},{"name":" Nichtraucherheuriger Weingut Deutinger","address":"Krottenhofgasse Keller 30\n ","postcode":"1210","city":"Wien","countrycode":"  A","latitude":"48.296955","longitude":"16.393597","details":"Heuriger, Essen mit Kindern, Gastgarten, Tel. +43.1.513586, Tel. +43.699.12726244"},{"name":" Naturprodukte Wallner","address":"Hietzinger Hauptstraße 23\n ","postcode":"1130","city":"Wien","countrycode":"  A","latitude":"48.186509","longitude":"16.297713","details":"Vegetarisch, www.bio-online.at, Bioprodukte, Hundeverbot, rollstuhlgerecht, Tel. +43.1.8792543"},{"name":" Naturprodukte Wallner","address":"Wiedner Hauptstraße 66\n ","postcode":"1040","city":"Wien","countrycode":"  A","latitude":"48.190185","longitude":"16.366235","details":"Vegetarisch, www.bio-online.at, Bioprodukte, Hundeverbot, rollstuhlgerecht, Tel. +43.1.5860671"},{"name":" Naturkost","address":"Zollergasse 26\n ","postcode":"1070","city":"Wien","countrycode":"  A","latitude":"48.201251","longitude":"16.35045'","details":"Vegetarisch, Bioprodukte, Schanigarten, rollstuhlgerecht, Tel. +43.1.5266818"},{"name":" Napoleon Schnitzelhaus","address":"Siegesplatz 23\n ","postcode":"1220","city":"Wien","countrycode":"  A","latitude":"48.217623","longitude":"16.485357","details":"Fastfood, Tel. +43.1.2854581"},{"name":" Mr. Lee - QuickLee","address":"Schwedenplatz 3-4\n ","postcode":"1010","city":"Wien","countrycode":"  A","latitude":"48.211611","longitude":"16.378926","details":"Asiatisch, Japanisch, Fastfood, www.mrlee.at, Gastgarten, rollstuhlgerecht, Tel. +43.1.5322651"},{"name":" Moh-Maroc","address":"Neubaugasse 84\n ","postcode":"1070","city":"Wien","countrycode":"  A","latitude":"48.205814","longitude":"16.349213","details":"Marokkanisch, Orientalisch, www.moh.at, Tel. +43.699.18477364"},{"name":" Mislimi","address":"Ottakringer Straße 23\n ","postcode":"1160","city":"Wien","countrycode":"  A","latitude":"48.214893","longitude":"16.337318","details":"Eissalon, Tel. +43.1.4099381"},{"name":" Mensa der Katholischen Hochschulgemeinde","address":"Ebendorferstraße 8\n ","postcode":"1010","city":"Wien","countrycode":"  A","latitude":"48.212794","longitude":"16.35787'","details":"Mensa, www.khg.or.at, Tel. +43.1.4083587"},{"name":" Mendoza","address":"Penzinger Straße 21\n ","postcode":"1140","city":"Wien","countrycode":"  A","latitude":"48.189741","longitude":"16.310964","details":"Weinhandlung, www.mendoza.at, Tel. +43.650.4965480"},{"name":" McDonalds","address":"Thaliastraße 17\n ","postcode":"1160","city":"Wien","countrycode":"  A","latitude":"48.209068","longitude":"16.335272","details":"Fastfood, www.mcdonalds.at, Tel. +43.1.4932875"},{"name":" Marcello","address":"Margaretenplatz 5/1\n ","postcode":"1050","city":"Wien","countrycode":"  A","latitude":"48.191391","longitude":"16.358182","details":"Eissalon, Schanigarten, Tel. +43.1.9139437"},{"name":" Maggies Genussgalerie","address":"Gertrudplatz 3\n ","postcode":"1180","city":"Wien","countrycode":"  A","latitude":"48.22561&","longitude":"16.344574","details":"Café, Espresso, www.genussgalerie.at, Gastgarten, Tel. +43.1.4090933, +43.676.3094941"},{"name":" Landhaus Winter","address":"Alberner Hafenzufahrtstraße 262\n ","postcode":"1110","city":"Wien","countrycode":"  A","latitude":"48.170846","longitude":"16.475602","details":"Süßwasserfische, www.landhauswinter.at, Essen mit Kindern, rollstuhlgerecht, Tel. +43.1.7672317.0"},{"name":" La Gelateria Leonardelli","address":"Klosterneuburger Straße 43\n ","postcode":"1200","city":"Wien","countrycode":"  A","latitude":"48.230576","longitude":"16.36701'","details":"Eissalon, www.leonardelli-eis.at, Schanigarten, Tel. +43.676.3049684"},{"name":" La Cullina","address":"Gärtnergasse 12\n ","postcode":"1030","city":"Wien","countrycode":"  A","latitude":"48.205537","longitude":"16.387837","details":"Franzöisch, Italienisch, www.laculina.at, Tel. +43.1.9411721"},{"name":" La Cité - Gerstner bei Peek & Cloppenburg","address":"Mariahilfer Straße 26-30\n ","postcode":"1070","city":"Wien","countrycode":"  A","latitude":"48.200283","longitude":"16.355817","details":"Café, Espresso, www.gerstner.at, Tel. +43.1.8904531"},{"name":" Kurkonditorei Oberlaa","address":"Währinger Straße 108\n ","postcode":"1180","city":"Wien","countrycode":"  A","latitude":"48.226122","longitude":"16.344909","details":"Konditorei, Bäckerei, www.oberlaa-wien.at, rollstuhlgerecht, Schanigarten, Tel. +43.1.4792397.0"},{"name":" Kunstcafé im Hundertwasserhaus","address":"Löwengasse 41-43\n ","postcode":"1030","city":"Wien","countrycode":"  A","latitude":"48.207441","longitude":"16.393591","details":"Café, Espresso, www.hundertwasserhaus.org, rollstuhlgerecht, Tel. +43.1.7138620"},{"name":" Konditorei Heiner","address":"Simmeringer Hauptstraße 423\n ","postcode":"1110","city":"Wien","countrycode":"  A","latitude":"48.151258","longitude":"16.45427'","details":"Konditorei, Bäckerei, www.heiner.co.at, Tel. +43.1.7696858.32"},{"name":" Café Konditorei Andreas Blocher","address":"Lindengasse 2\n ","postcode":"1070","city":"Wien","countrycode":"  A","latitude":"48.201479","longitude":"16.355084","details":"Konditorei, Bäckerei, Schanigarten, Tel. +43.699.10696884, hausgemachte Mehspeisen ohne künstliche Konservierung, ohne gehärtete Fette"},{"name":" Kichererbse","address":"Speisinger Straße 38\n ","postcode":"1130","city":"Wien","countrycode":"  A","latitude":"48.170271","longitude":"16.285733","details":"Vegetarisch, www.kichererbse.at, Bioprodukte, rollstuhlgerecht, Hundeverbot, Tel. +43.1.8042006"},{"name":" Kaffeerösterei Alt Wien","address":"Schleifmühlgasse 23\n ","postcode":"1040","city":"Wien","countrycode":"  A","latitude":"48.198198","longitude":"16.36414'","details":"Café, Espresso, www.altwien.at, Bioprodukte, Fairtrade, Hundeverbot, Tel. +43.1.5050800"},{"name":" Internetcafe Surfland","address":"Krugerstraße 10\n ","postcode":"1010","city":"Wien","countrycode":"  A","latitude":"48.203787","longitude":"16.371928","details":"Internetcafé, www.surfland.at, rollstuhlgerecht, Tel. +43.1.5127701"},{"name":" Hollmann Salon","address":"Grashofgasse 3\n ","postcode":"1010","city":"Wien","countrycode":"  A","latitude":"48.210421","longitude":"16.375802","details":"Gasthaus, Beisl, www.hollmann-salon.at, Bioprodukte, Essen mit Kindern, Gastgarten, Internet, Tel. +43.1.9611960.40"},{"name":" Heissenberger","address":"Kohlmarkt 11\n ","postcode":"1010","city":"Wien","countrycode":"  A","latitude":"48.208279","longitude":"16.366923","details":"www.heissenberger.com, Tel. +43.1.5321420"},{"name":" Gute Ernte","address":"Schweglerstraße 48\n ","postcode":"1150","city":"Wien","countrycode":"  A","latitude":"48.201043","longitude":"16.326797","details":"Chinesisch, Tel. +43.1.9823698"},{"name":" Govinda","address":"Lindengasse 2a\n ","postcode":"1070","city":"Wien","countrycode":"  A","latitude":"48.201479","longitude":"16.355084","details":"Vegetarisch, www.govinda.at, Tel. +43.1.5222817"},{"name":" Gourmet-Restaurant Coburg","address":"Coburgbastei 4\n ","postcode":"1010","city":"Wien","countrycode":"  A","latitude":"48.205699","longitude":"16.377171","details":"www.palais-coburg.com, Gastgarten"},{"name":" Gesundes","address":"Lilienbrunngasse 3\n ","postcode":"1020","city":"Wien","countrycode":"  A","latitude":"48.213398","longitude":"16.377563","details":"Vegetarisch, www.gesundess.at, Bioprodukte, rollstuhlgerecht, Schanigarten, Tel. +43.1.2195322"},{"name":" Gerstner im Kunsthistorischen Museum","address":"Maria-Theresien-Platz\n ","postcode":"1010","city":"Wien","countrycode":"  A","latitude":"48.20455&","longitude":"16.360825","details":"Café, Espresso, www.gerstner.at, Tel. +43.1.5261361"},{"name":" Fresh Soup & Salad","address":"Wipplingerstraße 1\n ","postcode":"1010","city":"Wien","countrycode":"  A","latitude":"48.211351","longitude":"16.371942","details":"Imbiss, Fastfood, www.fresh.at, rollstuhlgerecht, Tel. +43.1.205777"},{"name":" Fresco Grill","address":"Liechtensteinstraße 10\n ","postcode":"1090","city":"Wien","countrycode":"  A","latitude":"48.217058","longitude":"16.36255'","details":"Mexikanisch, www.frescogrill.at, Tel. +43.660.4678983"},{"name":" Formosa","address":"Barnabitengasse 6\n ","postcode":"1060","city":"Wien","countrycode":"  A","latitude":"48.198345","longitude":"16.35408'","details":"Vegetarisch, www.vegetarischesformosafood.at, Schanigarten, Tel. +43.1.5811112"},{"name":" Espresso Bendinelli","address":"Kettenbrückengasse 17\n ","postcode":"1050","city":"Wien","countrycode":"  A","latitude":"48.195919","longitude":"16.360038","details":"Café, Espresso, Tel. +43.1.5857005"},{"name":" EN","address":"Werdertorgasse 8\n ","postcode":"1010","city":"Wien","countrycode":"  A","latitude":"48.215137","longitude":"16.370386","details":"Japanisch, Schanigarten, Tel. +43.1.5324490"},{"name":" Eissalon Tuchlauben","address":"Tuchlauben 15\n ","postcode":"1010","city":"Wien","countrycode":"  A","latitude":"48.210523","longitude":"16.370966","details":"Eissalon, Schanigarten, rollstuhlgerecht, Tel. +43.1.5332553"},{"name":" Eissalon Perugini","address":"Brünner Straße 22\n ","postcode":"1210","city":"Wien","countrycode":"  A","latitude":"48.260637","longitude":"16.399498","details":"Eissalon, Gastgarten, Tel. +43.1.2711327"},{"name":" Eissalon Hermann","address":"Biberhaufenweg 8\n ","postcode":"1220","city":"Wien","countrycode":"  A","latitude":"48.216277","longitude":"16.482935","details":"Eissalon, Gastgarten, Tel. +43.1.2825216"},{"name":" Eissalon Armando","address":"Josefstädter Straße 75\n ","postcode":"1080","city":"Wien","countrycode":"  A","latitude":"48.210616","longitude":"16.343915","details":"Eissalon, Tel. +43.1.4063545"},{"name":" Eissalon Armando","address":"Josefstädter Straße 53\n ","postcode":"1080","city":"Wien","countrycode":"  A","latitude":"48.210097","longitude":"16.34634'","details":"Eissalon, Schanigarten, Tel. +43.1.4063716"},{"name":" Dungl Zentrum Wien","address":"Lerchenfelder Straße 99\n ","postcode":"1070","city":"Wien","countrycode":"  A","latitude":"48.206881","longitude":"16.346726","details":"Vegetarisch, www.dungl.at, Tel. +43.1.8903844"},{"name":" Dungl Zentrum Wien","address":"Schottengasse 9\n ","postcode":"1010","city":"Wien","countrycode":"  A","latitude":"48.213307","longitude":"16.362929","details":"Vegetarisch, www.dungl.at, Bioprodukte, rollstuhlgerecht, Tel. +43.1.5354899"},{"name":" Dschungel Deli","address":"Museumsplatz 1\n ","postcode":"1070","city":"Wien","countrycode":"  A","latitude":"48.20364&","longitude":"16.359314","details":"Bioprodukte, Essen mit Kindern, Gastgarten, rollstuhlgerecht, Tel. +43.1.5220720.50"},{"name":" Dreiklang","address":"Wasagasse 28\n ","postcode":"1090","city":"Wien","countrycode":"  A","latitude":"48.219087","longitude":"16.359298","details":"Vegetarisch, www.3klang.info, Bioprodukte, Essen mit Kindern, Fairtrade, Schanigarten, Tel. +43.1.3101703"},{"name":" Die Bio Bar von Antun","address":"Drahtgasse 3\n ","postcode":"1010","city":"Wien","countrycode":"  A","latitude":"48.211606","longitude":"16.369056","details":"Vegetarisch, www.biobar.at, Bioprodukte, Essen mit Kindern, Fairtrade, rollstuhlgerecht, Schanigarten, Tel. +43.1.9689351"},{"name":" Der Bio Feinkostladen, Franz Kaschik & Co","address":"Lange Gasse 43\n ","postcode":"1080","city":"Wien","countrycode":"  A","latitude":"48.210512","longitude":"16.351841","details":"Konditorei, Bäckerei, www.kaschikdemeterbrot.at, Bioprodukte, rollstuhlgerecht, Tel. +43.1.4093373"},{"name":" Der Bio Feinkostladen, Franz Kaschik & Co","address":"Rosensteingasse 43\n ","postcode":"1170","city":"Wien","countrycode":"  A","latitude":"48.217354","longitude":"16.32586'","details":"Konditorei, Bäckerei, www.kaschikdemeterbrot.at, Bioprodukte, rollstuhlgerecht, Tel. +43.1.4851588"},{"name":" Confiserie Zum Süssen Eck","address":"Maroltingergasse 59\n ","postcode":"1160","city":"Wien","countrycode":"  A","latitude":"48.211236","longitude":"16.305691","details":"Konfiserie, www.suesseseck.at, Tel. +43.1.4939215"},{"name":" Confiserie Zum Süssen Eck","address":"Währinger Straße 65\n ","postcode":"1090","city":"Wien","countrycode":"  A","latitude":"48.224174","longitude":"16.3503',","details":"Konfiserie, www.suesseseck.at, Schanigarten, Tel. +43.1.4027974"},{"name":" Café Restaurant Schloss Belvedere","address":"Prinz-Eugen-Straße 27\n ","postcode":"1030","city":"Wien","countrycode":"  A","latitude":"48.190796","longitude":"16.379807","details":"Wienerisch, Gasthaus, Beisl, www.belvedere.at, rollstuhlgerecht, Gastgarten, Tel. +43.664.4138943"},{"name":" Café Restaurant Galerie","address":"Matrosengasse 6-8 (Hotel Mercure)\n ","postcode":"1060","city":"Wien","countrycode":"  A","latitude":"48.18447&","longitude":"16.340377","details":"Wienerisch, Gasthaus, Beisl, rollstuhlgerecht, Tel. +43.1.59901.905"},{"name":" Café Bäckerei Stefan Zmeskal","address":"Hernalser Hauptstraße 18\n ","postcode":"1170","city":"Wien","countrycode":"  A","latitude":"48.216716","longitude":"16.340291","details":"Café, Espresso, Tel. +43.1.4061279"},{"name":" Café Konditorei Pichlbauer","address":"Inzersdorfer Straße 83\n ","postcode":"1100","city":"Wien","countrycode":"  A","latitude":"48.172501","longitude":"16.365253","details":"Konditorei, Bäckerei, www.baerige.konditorei.at, Essen mit Kindern, Tel. +43.1.6002270"},{"name":" Cafe der Provinz","address":"Maria-Treu-Gasse 3\n ","postcode":"1080","city":"Wien","countrycode":"  A","latitude":"48.210592","longitude":"16.351256","details":"Café, Espresso, www.cafederprovinz.at.tt, Bioprodukte, Internet, Schanigarten, Tel. +43.1.9442272"},{"name":" Bäckerei Bruckner","address":"Wallensteinstraße 7\n ","postcode":"1200","city":"Wien","countrycode":"  A","latitude":"48.228077","longitude":"16.367146","details":"Konditorei, Bäckerei, Tel. +43.1.3327494"},{"name":" Bulian","address":"Ottakringer Straße 146\n ","postcode":"1160","city":"Wien","countrycode":"  A","latitude":"48.213511","longitude":"16.319484","details":"Eissalon, rollstuhlgerecht, Tel. +43.1.4864386"},{"name":" Bagel Station","address":"Währinger Straße 2-4\n ","postcode":"1090","city":"Wien","countrycode":"  A","latitude":"48.214752","longitude":"16.361805","details":"www.bagelstation.com, Amerikanisch, Imbiss, Fastfood, Tel. +43.1.2763088"},{"name":" Bagel Station","address":"Capistrangasse 10\n ","postcode":"1060","city":"Wien","countrycode":"  A","latitude":"48.200339","longitude":"16.357182","details":"www.bagelstation.com, Amerikanisch, Imbiss, Fastfood, Tel. +43.1.2080894"},{"name":" Artee","address":"Siebensterngasse 44\n ","postcode":"1070","city":"Wien","countrycode":"  A","latitude":"48.202262","longitude":"16.351383","details":"Teehaus, Tel. +43.1.5240166"},{"name":" Café Bistró Traiteur","address":"Billrothstraße 39\n ","postcode":"1190","city":"Wien","countrycode":"  A","latitude":"48.23995&","longitude":"16.348982","details":"Französisch, Mittelmeerspezialitäten, Bioprodukte, Tel. +43.1.3675295"},{"name":" Akakiko","address":"Singerstraße 4\n ","postcode":"1010","city":"Wien","countrycode":"  A","latitude":"48.207797","longitude":"16.372384","details":"Japanisch, www.akakiko.at, Tel. +43.57.333.140, Schanigarten"},{"name":" Akakiko","address":"Heidenschuss 3\n ","postcode":"1010","city":"Wien","countrycode":"  A","latitude":"48.211223","longitude":"16.366513","details":"Japanisch, www.akakiko.at, Tel. +43.57.333.130, Schanigarten"},{"name":" Cafe Schneeberger","address":"Hauptstraße 80\n ","postcode":"2763","city":"Pernitz","countrycode":"  A","latitude":"47.897498","longitude":"15.961754","details":"www.schneebergerbaeck.at"},{"name":" Ginkoo","address":"Grazbachgasse 33\n ","postcode":"8010","city":"Graz","countrycode":"  A","latitude":"47.06566&","longitude":"15.444186","details":"vegetarisch, indisch, Tel. +43.316.815625"},{"name":" Gastwirtschaft Floh","address":"Tullner Straße 1\n ","postcode":"3425","city":"Langenlebarn","countrycode":"  A","latitude":"48.332636","longitude":"16.115265","details":"www.derfloh.at"},{"name":" Senhor Vinho","address":"Schwarzhorngasse 8\n ","postcode":"1050","city":"Wien","countrycode":"  A","latitude":"48.187369","longitude":"16.353546","details":"portugiesische Küche, Tel.: +43.1.5458400, www.senhorvinho.at"},{"name":" Makrokosmos","address":"Fleischmarkt 16\n ","postcode":"1010","city":"Wien","countrycode":"  A","latitude":"48.210657","longitude":"16.377036","details":" "},{"name":" Stadtbauerncafe","address":"Hamerlinggasse 3\n ","postcode":"8010","city":"Graz","countrycode":"  A","latitude":"47.068746","longitude":"15.442855","details":" "},{"name":" Weltfriedens-Cafe","address":"St.-Ulrichs-Platz 4\n ","postcode":"1070","city":"Wien","countrycode":"  A","latitude":"48.204833","longitude":"16.352817","details":"vegetarisch"},{"name":" Cafe & Galerie Kandinsky","address":"Lerchenfelderstraße 13\n ","postcode":"1070","city":"Wien","countrycode":"  A","latitude":"48.206511","longitude":"16.352996","details":" "},{"name":" Cafe-Restaurant im Kunsthaus","address":"Weissbergerlände 14\n ","postcode":"1030","city":"Wien","countrycode":"  A","latitude":"48.211226","longitude":"16.39404'","details":" "},{"name":" Mondscheinstüberl","address":"Mondscheingasse 24\n ","postcode":"1070","city":"Wien","countrycode":"  A","latitude":"48.201077","longitude":"16.350641","details":"Tel. +43.1.5267307"},{"name":" Schreiners Gastwirtschaft","address":"Westbahnstraße 42\n ","postcode":"1070","city":"Wien","countrycode":"  A","latitude":"48.201825","longitude":"16.342026","details":"Tel. +43.1.9903783"},{"name":" Kulinarium7","address":"Sigmundsgasse 1\n ","postcode":"1070","city":"Wien","countrycode":"  A","latitude":"48.202436","longitude":"16.353724","details":"Tel. +43.1.5223377 www.kulinarium7.at"},{"name":" Schnaps-Bar Club Hofstöckl","address":"Schlossgasse 21\n ","postcode":"1050","city":"Wien","countrycode":"  A","latitude":"48.191126","longitude":"16.359526","details":"Tel. +43.1.5440767"},{"name":" Wrenkh","address":"Bauernmarkt 100\n ","postcode":"1010","city":"Wien","countrycode":"  A","latitude":"48.210134","longitude":"16.372895","details":"Tel. +43.1.5331526"},{"name":" Regina Margherita","address":"Wallnerstraße 4\n ","postcode":"1010","city":"Wien","countrycode":"  A","latitude":"48.20956&","longitude":"16.36692'","details":"Tel. +43.1.5330812"},{"name":" Praterfee","address":"Prater Hauptallee 121\n ","postcode":"1020","city":"Wien","countrycode":"  A","latitude":"48.212062","longitude":"16.402319","details":"Tel. +43.1.7294999.82, www.kolarik.at, Familienrestaurant, Trampolin, Stocksport"},{"name":" BOK Sushi Bar","address":"Favoritenstraße 8\n ","postcode":"1040","city":"Wien","countrycode":"  A","latitude":"48.195421","longitude":"16.369193","details":"www.bok.co.at"},{"name":" Trattoria da Massimo","address":"Endresstraße 83\n ","postcode":"1230","city":"Wien","countrycode":"  A","latitude":"48.149862","longitude":"16.274867","details":"www.arcobaleno.at"},{"name":" Weingut GR Nastl","address":"Gartenzeile 17\n ","postcode":"3550","city":"Langenlois","countrycode":"  A","latitude":"48.476804","longitude":"15.654919","details":"Tel. +43.2734.2903 www.nastl.at"},{"name":" Eisoase Wagner","address":"Maria-Fieberbründl 60\n ","postcode":"8222","city":"Kaibing","countrycode":"  A","latitude":"47.210570","longitude":"15.847041","details":"Eissalon, Tel. +43.3334.2334"},{"name":" Beanery","address":"Zinzendorfgasse 20\n ","postcode":"8010","city":"Graz","countrycode":"  A","latitude":"47.075586","longitude":"15.448386","details":"Tel. +43.316.321416"},{"name":" Wimitzwirt","address":"Wimitz 10\n ","postcode":"9311","city":"Wimitz","countrycode":"  A","latitude":"46.840599","longitude":"14.352538","details":"Tel. +43.4212.28304, Mi+Do (ab 16h), Fr (ab 15h), wimitzwirt@aon.at, www.wimitz.at"},{"name":" Kontrast Restaurant","address":"Südtiroler Straße 31\n ","postcode":"4020","city":"Linz","countrycode":"  A","latitude":"48.295817","longitude":"14.294629","details":"Tel. +43.732.668470"},{"name":" Bigoli","address":"Dametzstraße 38\n ","postcode":"4020","city":"Linz","countrycode":"  A","latitude":"48.302901","longitude":"14.291431","details":"www.bigoli.at"},{"name":" niu fusion - restaurant","address":"Klammstraße 11\n ","postcode":"4020","city":"Linz","countrycode":"  A","latitude":"48.302725","longitude":"14.283648","details":"www.niu.at"},{"name":" Restaurant-Cafe Braunhofer","address":"Teichweg 35\n ","postcode":"8971","city":"Rohrmoos-Untertal","countrycode":"  A","latitude":"47.377463","longitude":"13.666631","details":"Tel. +43.3687.61575"},{"name":" Konditorei Cafe Dallmann","address":"Mozartplatz 2\n ","postcode":"5340","city":"Sankt Gilgen","countrycode":"  A","latitude":"47.766717","longitude":"13.364616","details":"Tel. +43.6227.2208"},{"name":" Richterhütte","address":"Unterkrimml 72\n ","postcode":"5743","city":"Krimml","countrycode":"  A","latitude":"47.228977","longitude":"12.181654","details":"Tel. +43.6564.7328"},{"name":" Gamshütte","address":"Dornau 361\n ","postcode":"6292","city":"Finkenberg","countrycode":"  A","latitude":"47.149624","longitude":"11.816838","details":"Tel. +43.664.2403134"},{"name":" Gasthof Vermala","address":"Sankt Gallenkirch 262c\n ","postcode":"6791","city":"Sankt Gallenkirch","countrycode":"  A","latitude":"47.01761&","longitude":"9.988278'","details":"Tel. +43.5557.6162"},{"name":" Cafe König","address":"Pontenstraße 25\n ","postcode":"6890","city":"Lustenau","countrycode":"  A","latitude":"47.431371","longitude":"9.654945'","details":"Tel. +43.577.82120"},{"name":" Café Griensteidl","address":"Michaelerplatz 2\n ","postcode":"1010","city":"Wien","countrycode":"  A","latitude":"48.208171","longitude":"16.366289","details":"Tel. +43.1.5352692, www.cafegriensteidl.at"},{"name":" Hotel-Restaurant Zimba","address":"Veltlinerweg 2\n ","postcode":"6780","city":"Schruns","countrycode":"  A","latitude":"47.078574","longitude":"9.91982',","details":" "},{"name":" Schwarzer Adler","address":"Malserstraße 8\n ","postcode":"6500","city":"Landeck","countrycode":"  A","latitude":"47.135929","longitude":"10.567271","details":" "},{"name":" Hotelrestaurant Schloss Lebenberg","address":"Lebenbergstraße 17\n ","postcode":"6370","city":"Kitzbühel","countrycode":"  A","latitude":"47.453193","longitude":"12.381866","details":" "},{"name":" Tellerrand","address":"Lakeside B01\n ","postcode":"9020","city":"Klagenfurt","countrycode":"  A","latitude":"46.615056","longitude":"14.262995","details":"gesunde Küche, auch vegetarisch/vegan, Tel. +43.463.228822.29, www.lakeside-scitec.com/en/lakeside-gastronomie/"},{"name":" Restaurant Santé","address":"Bismarckstraße 14\n ","postcode":"9800","city":"Spittal an der Drau","countrycode":"  A","latitude":"46.796152","longitude":"13.493097","details":" "},{"name":" Familiengasthof Schranz","address":"Lahn 18\n ","postcode":"5742","city":"Wald im Pinzgau","countrycode":"  A","latitude":"47.242773","longitude":"12.208187","details":" "},{"name":" Kurhotel Gugerbauer","address":"Kurhausstraße 4\n ","postcode":"4780","city":"Schärding","countrycode":"  A","latitude":"48.454962","longitude":"13.428846","details":" "},{"name":" Café Restaurant Kohlmann","address":"Bundesstraße 15\n ","postcode":"7371","city":"Piringsdorf","countrycode":"  A","latitude":"47.446319","longitude":"16.414205","details":"Tel. +43.650.4668000"},{"name":" Wiener Hütte","address":"Wiener Graben 307\n ","postcode":"2391","city":"Kaltenleutgeben","countrycode":"  A","latitude":"48.125458","longitude":"16.213354","details":"Tel. +43.2238.71314"},{"name":" Sushi-Restaurant Hanil","address":"Rechte Wienzeile 7\n ","postcode":"1040","city":"Wien","countrycode":"  A","latitude":"48.199182","longitude":"16.365153","details":"Tel. +43.1.5853590"}]